[{"street_no":"9","gisid":"59374","the_geom":{"type":"Point","coordinates":[144.964544307736,-37.803472390538]},"str_name":"Ievers Terrace","suburb":"Carlton","address_pnt":"9 Ievers Terrace  Carlton","suburb_id":"585","street_id":"734","easting":"320807.10817386","northing":"5814038.29163737","latitude":"-37.80347239","longitude":"144.96454431"}
    ,{"gisid":"45376","the_geom":{"type":"Point","coordinates":[144.966082917178,-37.817800398322]},"add_comp":"Shop 10","str_name":"Campbell Arcade","suburb":"Melbourne","address_pnt":"Shop 10 Campbell Arcade  Melbourne","suburb_id":"591","street_id":"1601","easting":"320977.19049941","northing":"5812451.31951122","latitude":"-37.8178004","longitude":"144.96608292"}
    ,{"street_no":"417","gisid":"11576","the_geom":{"type":"Point","coordinates":[144.960055623941,-37.818587432708]},"str_name":"Flinders Lane","suburb":"Melbourne","address_pnt":"417 Flinders Lane  Melbourne","suburb_id":"591","street_id":"635","easting":"320448.52705009","northing":"5812352.41480365","latitude":"-37.81858743","longitude":"144.96005562"}
    ,{"street_no":"29","gisid":"31389","the_geom":{"type":"Point","coordinates":[144.953544275406,-37.808279230243]},"str_name":"Walsh Street","suburb":"West Melbourne","address_pnt":"29 Walsh Street  West Melbourne","suburb_id":"597","street_id":"1156","easting":"319850.29225143","northing":"5813483.73945609","latitude":"-37.80827923","longitude":"144.95354427"}
    ,{"street_no":"156","gisid":"11705","the_geom":{"type":"Point","coordinates":[144.969495097188,-37.816721526986]},"str_name":"Flinders Street","suburb":"Melbourne","address_pnt":"156 Flinders Street  Melbourne","suburb_id":"591","street_id":"636","easting":"321274.95531932","northing":"5812577.57267242","latitude":"-37.81672153","longitude":"144.9694951"}
    ,{"street_no":"299","gisid":"17262","the_geom":{"type":"Point","coordinates":[144.971209063757,-37.807866062656]},"str_name":"Spring Street","suburb":"Melbourne","address_pnt":"299 Spring Street  Melbourne","suburb_id":"591","street_id":"1088","easting":"321404.49349852","northing":"5813563.50626424","latitude":"-37.80786606","longitude":"144.97120906"}
    ,{"street_no":"459","gisid":"23205","the_geom":{"type":"Point","coordinates":[144.977537356327,-37.840728561597]},"str_name":"St Kilda Road","suburb":"Melbourne","address_pnt":"459 St Kilda Road  Melbourne","suburb_id":"591","street_id":"1056","easting":"322040.60453336","northing":"5809928.96409196","latitude":"-37.84072856","longitude":"144.97753736"}
    ,{"street_no":"14","gisid":"24184","the_geom":{"type":"Point","coordinates":[144.918471555317,-37.794871330182]},"str_name":"Holsten Lane South","suburb":"Kensington","address_pnt":"14 Holsten Lane South  Kensington","suburb_id":"590","street_id":"1420","easting":"316729.35460937","northing":"5814903.35207934","latitude":"-37.79487133","longitude":"144.91847156"}
    ,{"street_no":"7","gisid":"23461","the_geom":{"type":"Point","coordinates":[144.977650409205,-37.838929743749]},"str_name":"Slater Street","suburb":"Melbourne","address_pnt":"7 Slater Street  Melbourne","suburb_id":"591","street_id":"1076","easting":"322046.22930412","northing":"5810128.78778324","latitude":"-37.83892974","longitude":"144.97765041"}
    ,{"street_no":"98","gisid":"16056","the_geom":{"type":"Point","coordinates":[144.966418225825,-37.804744353991]},"str_name":"Lygon Street","suburb":"Carlton","address_pnt":"98 Lygon Street  Carlton","suburb_id":"585","street_id":"840","easting":"320975.16939513","northing":"5813900.7396371","latitude":"-37.80474435","longitude":"144.96641823"}
    ,{"street_no":"65","gisid":"51026","the_geom":{"type":"Point","coordinates":[144.936797590502,-37.813490184629]},"str_name":"Pearl River Road","suburb":"Docklands","address_pnt":"65 Pearl River Road  Docklands","suburb_id":"599","street_id":"119108","easting":"318388.69160832","northing":"5812873.069662","latitude":"-37.81349018","longitude":"144.93679759"}
    ,{"street_no":"426","gisid":"13429","the_geom":{"type":"Point","coordinates":[144.95494163951,-37.808148146079]},"str_name":"William Street","suburb":"West Melbourne","address_pnt":"426 William Street  West Melbourne","suburb_id":"597","street_id":"1179","easting":"319972.99712467","northing":"5813500.97929396","latitude":"-37.80814815","longitude":"144.95494164"}
    ,{"street_no":"116","gisid":"43642","the_geom":{"type":"Point","coordinates":[144.971796833285,-37.792492101165]},"str_name":"Princes Street","address_pnt":"116 Princes Street","suburb_id":"0","street_id":"999","easting":"321419.2115398","northing":"5815270.61313224","latitude":"-37.7924921","longitude":"144.97179683"}
    ,{"street_no":"393","gisid":"56309","the_geom":{"type":"Point","coordinates":[144.950392693377,-37.811305244874]},"str_name":"Spencer Street","suburb":"West Melbourne","address_pnt":"393 Spencer Street  West Melbourne","suburb_id":"597","street_id":"1086","easting":"319580.19546662","northing":"5813141.87140067","latitude":"-37.81130524","longitude":"144.95039269"}
    ,{"street_no":"240","gisid":"12596","the_geom":{"type":"Point","coordinates":[144.952577039137,-37.815236085589]},"str_name":"Spencer Street","suburb":"Melbourne","address_pnt":"240 Spencer Street  Melbourne","suburb_id":"591","street_id":"1086","easting":"319782.05666947","northing":"5812709.89741281","latitude":"-37.81523609","longitude":"144.95257704"}
    ,{"street_no":"26","gisid":"40208","the_geom":{"type":"Point","coordinates":[144.921570326442,-37.792860622465]},"str_name":"Graham Street","suburb":"Kensington","address_pnt":"26 Graham Street  Kensington","suburb_id":"590","street_id":"1298","easting":"316997.25739028","northing":"5815132.54655109","latitude":"-37.79286062","longitude":"144.92157033"}
    ,{"street_no":"22","gisid":"32809","the_geom":{"type":"Point","coordinates":[144.967248206376,-37.821043289213]},"str_name":"City Road","suburb":"Southbank","address_pnt":"22 City Road  Southbank","suburb_id":"596","street_id":"1345","easting":"321087.60019023","northing":"5812093.7013607","latitude":"-37.82104329","longitude":"144.96724821"}
    ,{"street_no":"169","gisid":"4370","the_geom":{"type":"Point","coordinates":[144.922276916044,-37.826988035543]},"str_name":"Salmon Street","suburb":"Port Melbourne","address_pnt":"169 Salmon Street  Port Melbourne","suburb_id":"594","street_id":"1393","easting":"317143.70417923","northing":"5811346.92110295","latitude":"-37.82698804","longitude":"144.92227692"}
    ,{"street_no":"464","gisid":"25470","the_geom":{"type":"Point","coordinates":[144.95056399867,-37.805133795416]},"str_name":"Victoria Street","suburb":"North Melbourne","address_pnt":"464 Victoria Street  North Melbourne","suburb_id":"592","street_id":"1152","easting":"319580.25370245","northing":"5813827.02487438","latitude":"-37.8051338","longitude":"144.950564"}
    ,{"street_no":"8","gisid":"54691","the_geom":{"type":"Point","coordinates":[144.900868414348,-37.830729698112]},"str_name":"Sardine Street","suburb":"Port Melbourne","address_pnt":"8 Sardine Street  Port Melbourne","suburb_id":"594","street_id":"117798","easting":"315268.70821538","northing":"5810889.57722484","latitude":"-37.8307297","longitude":"144.90086841"}
    ,{"street_no":"41","gisid":"20398","the_geom":{"type":"Point","coordinates":[144.984878146153,-37.836979133032]},"str_name":"Walsh Street","suburb":"South Yarra","address_pnt":"41 Walsh Street  South Yarra","suburb_id":"595","street_id":"1155","easting":"322677.6175315","northing":"5810358.99301854","latitude":"-37.83697913","longitude":"144.98487815"}
    ,{"street_no":"38","gisid":"39368","the_geom":{"type":"Point","coordinates":[144.919983427579,-37.795655097121]},"str_name":"Newman Street","suburb":"Kensington","address_pnt":"38 Newman Street  Kensington","suburb_id":"590","street_id":"2032","easting":"316864.41966211","northing":"5814819.34441421","latitude":"-37.7956551","longitude":"144.91998343"}
    ,{"street_no":"281","gisid":"12805","the_geom":{"type":"Point","coordinates":[144.956567524254,-37.812486247974]},"str_name":"William Street","suburb":"Melbourne","address_pnt":"281 William Street  Melbourne","suburb_id":"591","street_id":"1179","easting":"320126.66891324","northing":"5813022.72882941","latitude":"-37.81248625","longitude":"144.95656752"}
    ,{"street_no":"272","gisid":"53752","the_geom":{"type":"Point","coordinates":[144.959399230239,-37.787416679083]},"str_name":"Royal Parade","suburb":"Carlton North","address_pnt":"272 Royal Parade  Carlton North","suburb_id":"586","street_id":"1041","easting":"320315.20581468","northing":"5815810.04703243","latitude":"-37.78741668","longitude":"144.95939923"}
    ,{"gisid":"10108","the_geom":{"type":"Point","coordinates":[144.917634478953,-37.818498986652]},"add_comp":"Berth B","str_name":"Appleton Dock","suburb":"West Melbourne","address_pnt":"Berth B Appleton Dock  West Melbourne","suburb_id":"597","street_id":"3096","easting":"316714.08377629","northing":"5812279.82440099","latitude":"-37.81849899","longitude":"144.91763448"}
    ,{"street_no":"13","gisid":"23274","the_geom":{"type":"Point","coordinates":[144.981005759586,-37.847785325236]},"str_name":"Moubray Street","suburb":"Melbourne","address_pnt":"13 Moubray Street  Melbourne","suburb_id":"591","street_id":"916","easting":"322362.76206954","northing":"5809152.50751512","latitude":"-37.84778533","longitude":"144.98100576"}
    ,{"street_no":"263","gisid":"4832","the_geom":{"type":"Point","coordinates":[144.956415774578,-37.809468621517]},"str_name":"Franklin Street","suburb":"Melbourne","address_pnt":"263 Franklin Street  Melbourne","suburb_id":"591","street_id":"644","easting":"320105.98463167","northing":"5813357.29105048","latitude":"-37.80946862","longitude":"144.95641577"}
    ,{"street_no":"112","gisid":"24576","the_geom":{"type":"Point","coordinates":[144.956993290664,-37.802679541637]},"str_name":"O'connell Street","suburb":"Melbourne","address_pnt":"112 O'connell Street  Melbourne","suburb_id":"591","street_id":"939","easting":"320140.35436107","northing":"5814111.76094479","latitude":"-37.80267954","longitude":"144.95699329"}
    ,{"street_no":"337","gisid":"56763","the_geom":{"type":"Point","coordinates":[144.973728808463,-37.833527698092]},"str_name":"St Kilda Road","suburb":"Melbourne","address_pnt":"337 St Kilda Road  Melbourne","suburb_id":"591","street_id":"1056","easting":"321688.10836936","northing":"5810720.75003476","latitude":"-37.8335277","longitude":"144.97372881"}
    ,{"street_no":"43","gisid":"28646","the_geom":{"type":"Point","coordinates":[144.947397724801,-37.801056627735]},"str_name":"Little Baillie Street","suburb":"North Melbourne","address_pnt":"43 Little Baillie Street  North Melbourne","suburb_id":"592","street_id":"806","easting":"319291.54545689","northing":"5814273.33317961","latitude":"-37.80105663","longitude":"144.94739772"}
    ,{"street_no":"697","gisid":"13398","the_geom":{"type":"Point","coordinates":[144.943659998526,-37.805793697721]},"str_name":"Spencer Street","suburb":"West Melbourne","address_pnt":"697 Spencer Street  West Melbourne","suburb_id":"597","street_id":"1086","easting":"318974.01432021","northing":"5813740.44208983","latitude":"-37.8057937","longitude":"144.94366"}
    ,{"street_no":"19","gisid":"44496","the_geom":{"type":"Point","coordinates":[144.973103397358,-37.813712295514]},"str_name":"Collins Street","suburb":"Melbourne","address_pnt":"19 Collins Street  Melbourne","suburb_id":"591","street_id":"526","easting":"321585.3453746","northing":"5812918.39366481","latitude":"-37.8137123","longitude":"144.9731034"}
    ,{"street_no":"81","gisid":"55996","the_geom":{"type":"Point","coordinates":[144.930439113509,-37.791662531849]},"str_name":"Eastwood Street","suburb":"Kensington","address_pnt":"81 Eastwood Street  Kensington","suburb_id":"590","street_id":"594","easting":"317775.28280036","northing":"5815282.82580517","latitude":"-37.79166253","longitude":"144.93043911"}
    ,{"street_no":"5","gisid":"19689","the_geom":{"type":"Point","coordinates":[144.955701182624,-37.795254055587]},"str_name":"Wimble Street","suburb":"Parkville","address_pnt":"5 Wimble Street  Parkville","suburb_id":"593","street_id":"1183","easting":"320008.5629816","northing":"5814933.24921974","latitude":"-37.79525406","longitude":"144.95570118"}
    ,{"street_no":"140","gisid":"25758","the_geom":{"type":"Point","coordinates":[144.946921966302,-37.800503081636]},"str_name":"Arden Street","suburb":"North Melbourne","address_pnt":"140 Arden Street  North Melbourne","suburb_id":"592","street_id":"395","easting":"319248.30623278","northing":"5814333.83779718","latitude":"-37.80050308","longitude":"144.94692197"}
    ,{"street_no":"333","gisid":"16218","the_geom":{"type":"Point","coordinates":[144.967310073396,-37.797523230124]},"str_name":"Lygon Street","suburb":"Carlton","address_pnt":"333 Lygon Street  Carlton","suburb_id":"585","street_id":"840","easting":"321036.25943385","northing":"5814703.74639021","latitude":"-37.79752323","longitude":"144.96731007"}
    ,{"street_no":"53","gisid":"62470","the_geom":{"type":"Point","coordinates":[144.971100046758,-37.798224451599]},"str_name":"MacArthur Place North","suburb":"Carlton","address_pnt":"53 MacArthur Place North  Carlton","suburb_id":"585","street_id":"843","easting":"321371.66377214","northing":"5814633.18712558","latitude":"-37.79822445","longitude":"144.97110005"}
    ,{"street_no":"117","gisid":"6388","the_geom":{"type":"Point","coordinates":[144.970324242482,-37.816762163038]},"str_name":"Flinders Street","suburb":"Melbourne","address_pnt":"117 Flinders Street  Melbourne","suburb_id":"591","street_id":"636","easting":"321348.04227387","northing":"5812574.64982017","latitude":"-37.81676216","longitude":"144.97032424"}
    ,{"street_no":"200","gisid":"53716","the_geom":{"type":"Point","coordinates":[144.959175837482,-37.789228221193]},"str_name":"Royal Parade","suburb":"Carlton North","address_pnt":"200 Royal Parade  Carlton North","suburb_id":"586","street_id":"1041","easting":"320299.92208995","northing":"5815608.59828657","latitude":"-37.78922822","longitude":"144.95917584"}
    ,{"street_no":"12","gisid":"11937","the_geom":{"type":"Point","coordinates":[144.97376383849,-37.814442276434]},"str_name":"Flinders Lane","suburb":"Melbourne","address_pnt":"12 Flinders Lane  Melbourne","suburb_id":"591","street_id":"635","easting":"321645.24294089","northing":"5812838.65199766","latitude":"-37.81444228","longitude":"144.97376384"}
    ,{"street_no":"338","gisid":"35411","the_geom":{"type":"Point","coordinates":[144.95849246416,-37.781798135798]},"str_name":"Mile Lane","suburb":"Parkville","address_pnt":"338 Mile Lane  Parkville","suburb_id":"593","street_id":"897","easting":"320221.73554719","northing":"5816431.76903114","latitude":"-37.78179814","longitude":"144.95849246"}
    ,{"street_no":"75","gisid":"32785","the_geom":{"type":"Point","coordinates":[144.965433790384,-37.822175006712]},"str_name":"City Road","suburb":"Southbank","address_pnt":"75 City Road  Southbank","suburb_id":"596","street_id":"1345","easting":"320930.62353711","northing":"5811964.64136806","latitude":"-37.82217501","longitude":"144.96543379"}
    ,{"street_no":"37","gisid":"53970","the_geom":{"type":"Point","coordinates":[144.973758615064,-37.796776456232]},"str_name":"Palmerston Street","suburb":"Carlton","address_pnt":"37 Palmerston Street  Carlton","suburb_id":"585","street_id":"955","easting":"321602.26985055","northing":"5814798.9441364","latitude":"-37.79677646","longitude":"144.97375861"}
    ,{"street_no":"154","gisid":"12926","the_geom":{"type":"Point","coordinates":[144.958279440861,-37.815438022819]},"str_name":"William Street","suburb":"Melbourne","address_pnt":"154 William Street  Melbourne","suburb_id":"591","street_id":"1179","easting":"320284.53566925","northing":"5812698.4768295","latitude":"-37.81543802","longitude":"144.95827944"}
    ,{"street_no":"421","gisid":"49251","the_geom":{"type":"Point","coordinates":[144.922555762274,-37.787562094903]},"str_name":"Racecourse Road","suburb":"Kensington","address_pnt":"421 Racecourse Road  Kensington","suburb_id":"590","street_id":"119624","easting":"317070.96408102","northing":"5815722.43480798","latitude":"-37.78756209","longitude":"144.92255576"}
    ,{"street_no":"146","gisid":"17973","the_geom":{"type":"Point","coordinates":[144.966120304839,-37.814200463902]},"str_name":"Swanston Street","suburb":"Melbourne","address_pnt":"146 Swanston Street  Melbourne","suburb_id":"591","street_id":"1114","easting":"320971.78360333","northing":"5812850.86191929","latitude":"-37.81420046","longitude":"144.9661203"}
    ,{"street_no":"262","gisid":"11240","the_geom":{"type":"Point","coordinates":[144.965716359688,-37.81457153281]},"str_name":"Little Collins Street","suburb":"Melbourne","address_pnt":"262 Little Collins Street  Melbourne","suburb_id":"591","street_id":"812","easting":"320937.12006372","northing":"5812808.91147276","latitude":"-37.81457153","longitude":"144.96571636"}
    ,{"street_no":"16","gisid":"63602","the_geom":{"type":"Point","coordinates":[144.989871652781,-37.812993926676]},"str_name":"Darling Street","suburb":"East Melbourne","address_pnt":"16 Darling Street  East Melbourne","suburb_id":"587","street_id":"556","easting":"323059.78403973","northing":"5813030.00500543","latitude":"-37.81299393","longitude":"144.98987165"}
    ,{"street_no":"95","gisid":"48285","the_geom":{"type":"Point","coordinates":[144.935420614051,-37.790157733058]},"str_name":"Parsons Street","suburb":"Kensington","address_pnt":"95 Parsons Street  Kensington","suburb_id":"590","street_id":"119642","easting":"318210.26270671","northing":"5815459.50985225","latitude":"-37.79015773","longitude":"144.93542061"}
    ,{"street_no":"191","gisid":"32234","the_geom":{"type":"Point","coordinates":[144.945997081449,-37.810283830613]},"str_name":"Stanley Street","suburb":"West Melbourne","address_pnt":"191 Stanley Street  West Melbourne","suburb_id":"597","street_id":"1089","easting":"319190.73148348","northing":"5813246.7146893","latitude":"-37.81028383","longitude":"144.94599708"}
    ,{"street_no":"364","gisid":"30566","the_geom":{"type":"Point","coordinates":[144.946504276822,-37.798096792154]},"str_name":"Abbotsford Street","suburb":"North Melbourne","address_pnt":"364 Abbotsford Street  North Melbourne","suburb_id":"592","street_id":"367","easting":"319205.66122034","northing":"5814600.04638322","latitude":"-37.79809679","longitude":"144.94650428"}
    ,{"street_no":"475","gisid":"14785","the_geom":{"type":"Point","coordinates":[144.957983520274,-37.812470454535]},"str_name":"Little Lonsdale Street","suburb":"Melbourne","address_pnt":"475 Little Lonsdale Street  Melbourne","suburb_id":"591","street_id":"825","easting":"320251.28701958","northing":"5813027.20722881","latitude":"-37.81247045","longitude":"144.95798352"}
    ,{"street_no":"15","gisid":"37778","the_geom":{"type":"Point","coordinates":[144.926870257232,-37.793407906902]},"str_name":"Epsom Road","suburb":"Kensington","address_pnt":"15 Epsom Road  Kensington","suburb_id":"590","street_id":"605","easting":"317465.30710795","northing":"5815082.18247554","latitude":"-37.79340791","longitude":"144.92687026"}
    ,{"street_no":"13","gisid":"47259","the_geom":{"type":"Point","coordinates":[144.924329931859,-37.789642595296]},"str_name":"The Lairidge","suburb":"Kensington","address_pnt":"13 The Lairidge  Kensington","suburb_id":"590","street_id":"119676","easting":"317232.33258461","northing":"5815495.04036013","latitude":"-37.7896426","longitude":"144.92432993"}
    ,{"street_no":"49W","gisid":"21734","the_geom":{"type":"Point","coordinates":[144.978923373077,-37.837446470014]},"str_name":"Toorak Road","suburb":"South Yarra","address_pnt":"49W Toorak Road  South Yarra","suburb_id":"595","street_id":"1127","easting":"322154.6905413","northing":"5810295.80698862","latitude":"-37.83744647","longitude":"144.97892337"}
    ,{"street_no":"157","gisid":"52274","the_geom":{"type":"Point","coordinates":[144.935165039501,-37.794100004434]},"str_name":"Stubbs Street","suburb":"Kensington","address_pnt":"157 Stubbs Street  Kensington","suburb_id":"590","street_id":"119628","easting":"318197.42161061","northing":"5815021.55355251","latitude":"-37.7941","longitude":"144.93516504"}
    ,{"street_no":"65","gisid":"34432","the_geom":{"type":"Point","coordinates":[144.968048625091,-37.826051074468]},"str_name":"Dodds Street","suburb":"Southbank","address_pnt":"65 Dodds Street  Southbank","suburb_id":"596","street_id":"1355","easting":"321170.14656595","northing":"5811539.53963396","latitude":"-37.82605107","longitude":"144.96804862"}
    ,{"street_no":"25","gisid":"23177","the_geom":{"type":"Point","coordinates":[144.984409925694,-37.844532434527]},"str_name":"Park Lane","suburb":"South Yarra","address_pnt":"25 Park Lane  South Yarra","suburb_id":"595","street_id":"958","easting":"322654.50769409","northing":"5809519.94232231","latitude":"-37.84453243","longitude":"144.98440993"}
    ,{"street_no":"107","gisid":"28104","the_geom":{"type":"Point","coordinates":[144.951173847445,-37.801828566311]},"str_name":"Leveson Street","suburb":"North Melbourne","address_pnt":"107 Leveson Street  North Melbourne","suburb_id":"592","street_id":"791","easting":"319625.90431247","northing":"5814194.97112545","latitude":"-37.80182857","longitude":"144.95117385"}
    ,{"street_no":"32","gisid":"7763","the_geom":{"type":"Point","coordinates":[144.965491108801,-37.815287730256]},"str_name":"Howey Place","suburb":"Melbourne","address_pnt":"32 Howey Place  Melbourne","suburb_id":"591","street_id":"727","easting":"320919.0218228","northing":"5812729.00597561","latitude":"-37.81528773","longitude":"144.96549111"}
    ,{"street_no":"569","gisid":"10380","the_geom":{"type":"Point","coordinates":[144.955600794907,-37.814349789415]},"str_name":"Lonsdale Street","suburb":"Melbourne","address_pnt":"569 Lonsdale Street  Melbourne","suburb_id":"591","street_id":"803","easting":"320046.08906103","northing":"5812814.0765066","latitude":"-37.81434979","longitude":"144.95560079"}
    ,{"street_no":"52-54","gisid":"2297","the_geom":{"type":"Point","coordinates":[144.972994804514,-37.798138587504]},"add_comp":"Unit 2","str_name":"Canning Street","suburb":"Carlton","address_pnt":"Unit 2 52-54 Canning Street  Carlton","suburb_id":"585","street_id":"479","easting":"321538.29280955","northing":"5814646.33569509","latitude":"-37.79813859","longitude":"144.9729948"}
    ,{"street_no":"687","gisid":"11424","the_geom":{"type":"Point","coordinates":[144.953542567009,-37.817161682894]},"str_name":"Bourke Street","suburb":"Melbourne","address_pnt":"687 Bourke Street  Melbourne","suburb_id":"591","street_id":"455","easting":"319871.73472514","northing":"5812498.08353941","latitude":"-37.81716168","longitude":"144.95354257"}
    ,{"street_no":"52","gisid":"54367","the_geom":{"type":"Point","coordinates":[144.961805776531,-37.805278413705]},"str_name":"Bouverie Street","suburb":"Carlton","address_pnt":"52 Bouverie Street  Carlton","suburb_id":"585","street_id":"456","easting":"320570.36584151","northing":"5813832.62827102","latitude":"-37.80527841","longitude":"144.96180578"}
    ,{"street_no":"29","gisid":"35862","the_geom":{"type":"Point","coordinates":[144.942138619196,-37.787996983768]},"str_name":"Emu Lane","suburb":"Parkville","address_pnt":"29 Emu Lane  Parkville","suburb_id":"593","street_id":"117896","easting":"318796.57942928","northing":"5815712.32694436","latitude":"-37.78799698","longitude":"144.94213862"}
    ,{"street_no":"275","gisid":"61194","the_geom":{"type":"Point","coordinates":[144.964994753058,-37.797021439436]},"str_name":"Elgin Street","suburb":"Carlton","address_pnt":"275 Elgin Street  Carlton","suburb_id":"585","street_id":"598","easting":"320831.17801494","northing":"5814754.99089307","latitude":"-37.79702144","longitude":"144.96499475"}
    ,{"street_no":"407B","gisid":"22947","the_geom":{"type":"Point","coordinates":[144.976110649269,-37.836252318901]},"str_name":"St Kilda Road","suburb":"Melbourne","address_pnt":"407B St Kilda Road  Melbourne","suburb_id":"591","street_id":"1056","easting":"321904.28578474","northing":"5810422.95543607","latitude":"-37.83625232","longitude":"144.97611065"}
    ,{"street_no":"158","gisid":"60028","the_geom":{"type":"Point","coordinates":[144.960799270699,-37.802394624902]},"str_name":"Leicester Street","suburb":"Carlton","address_pnt":"158 Leicester Street  Carlton","suburb_id":"585","street_id":"786","easting":"320474.76602308","northing":"5814150.69721243","latitude":"-37.80239462","longitude":"144.96079927"}
    ,{"street_no":"3","gisid":"49970","the_geom":{"type":"Point","coordinates":[144.989477012225,-37.813265485059]},"str_name":"Darling Street","suburb":"East Melbourne","address_pnt":"3 Darling Street  East Melbourne","suburb_id":"587","street_id":"556","easting":"323025.69096604","northing":"5812999.12374279","latitude":"-37.81326548","longitude":"144.98947701"}
    ,{"street_no":"402","gisid":"2647","the_geom":{"type":"Point","coordinates":[144.984984620388,-37.809516636405]},"str_name":"Victoria Parade","suburb":"East Melbourne","address_pnt":"402 Victoria Parade  East Melbourne","suburb_id":"587","street_id":"1151","easting":"322621.23902342","northing":"5813406.59622482","latitude":"-37.80951664","longitude":"144.98498462"}
    ,{"street_no":"19","gisid":"6339","the_geom":{"type":"Point","coordinates":[144.965708448888,-37.817260371833]},"str_name":"Degraves Street","suburb":"Melbourne","address_pnt":"19 Degraves Street  Melbourne","suburb_id":"591","street_id":"566","easting":"320942.9216986","northing":"5812510.52626098","latitude":"-37.81726037","longitude":"144.96570845"}
    ,{"street_no":"113","gisid":"60074","the_geom":{"type":"Point","coordinates":[144.960303736733,-37.803251091685]},"str_name":"Leicester Street","suburb":"Carlton","address_pnt":"113 Leicester Street  Carlton","suburb_id":"585","street_id":"786","easting":"320433.21072455","northing":"5814054.70620053","latitude":"-37.80325109","longitude":"144.96030374"}
    ,{"street_no":"25","gisid":"50052","the_geom":{"type":"Point","coordinates":[144.91474229754,-37.830977630513]},"str_name":"Cook Street","suburb":"Port Melbourne","address_pnt":"25 Cook Street  Port Melbourne","suburb_id":"594","street_id":"1447","easting":"316490.41053341","northing":"5810889.42481015","latitude":"-37.83097763","longitude":"144.9147423"}
    ,{"street_no":"225","gisid":"56226","the_geom":{"type":"Point","coordinates":[144.901410031261,-37.828638522213]},"str_name":"Lorimer Street","suburb":"Port Melbourne","address_pnt":"225 Lorimer Street  Port Melbourne","suburb_id":"594","street_id":"1370","easting":"315311.16255858","northing":"5811122.70116763","latitude":"-37.82863852","longitude":"144.90141003"}
    ,{"street_no":"323","gisid":"35001","the_geom":{"type":"Point","coordinates":[144.958903970081,-37.785902405523]},"str_name":"Royal Parade","suburb":"Parkville","address_pnt":"323 Royal Parade  Parkville","suburb_id":"593","street_id":"1041","easting":"320267.92180775","northing":"5815977.12717858","latitude":"-37.78590241","longitude":"144.95890397"}
    ,{"street_no":"24","gisid":"5702","the_geom":{"type":"Point","coordinates":[144.955470133524,-37.814763339856]},"str_name":"Brown Alley","suburb":"Melbourne","address_pnt":"24 Brown Alley  Melbourne","suburb_id":"591","street_id":"1265","easting":"320035.59108994","northing":"5812767.93456526","latitude":"-37.81476334","longitude":"144.95547013"}
    ,{"street_no":"568","gisid":"12082","the_geom":{"type":"Point","coordinates":[144.95535727506,-37.819794262151]},"str_name":"Flinders Lane","suburb":"Melbourne","address_pnt":"568 Flinders Lane  Melbourne","suburb_id":"591","street_id":"635","easting":"320037.87631403","northing":"5812209.45416114","latitude":"-37.81979426","longitude":"144.95535728"}
    ,{"street_no":"159","gisid":"19408","the_geom":{"type":"Point","coordinates":[144.955683751961,-37.794128765501]},"str_name":"Park Drive","suburb":"Parkville","address_pnt":"159 Park Drive  Parkville","suburb_id":"593","street_id":"956","easting":"320004.29655429","northing":"5815058.08446258","latitude":"-37.79412877","longitude":"144.95568375"}
    ,{"street_no":"59","gisid":"42296","the_geom":{"type":"Point","coordinates":[144.928907358068,-37.79875219888]},"str_name":"Tennyson Street","suburb":"Kensington","address_pnt":"59 Tennyson Street  Kensington","suburb_id":"590","street_id":"1119","easting":"317657.83246888","northing":"5814493.12280663","latitude":"-37.7987522","longitude":"144.92890736"}
    ,{"street_no":"140","gisid":"20218","the_geom":{"type":"Point","coordinates":[144.954775953969,-37.793878163223]},"str_name":"Gatehouse Street","suburb":"Parkville","address_pnt":"140 Gatehouse Street  Parkville","suburb_id":"593","street_id":"649","easting":"319923.75065566","northing":"5815084.14377176","latitude":"-37.79387816","longitude":"144.95477595"}
    ,{"street_no":"36","gisid":"6636","the_geom":{"type":"Point","coordinates":[144.979414595933,-37.817457241849]},"str_name":"Jolimont Lane","suburb":"East Melbourne","address_pnt":"36 Jolimont Lane  East Melbourne","suburb_id":"587","street_id":"743","easting":"322149.92646703","northing":"5812514.86890766","latitude":"-37.81745724","longitude":"144.9794146"}
    ,{"street_no":"331","gisid":"24893","the_geom":{"type":"Point","coordinates":[144.957043272849,-37.804017010217]},"str_name":"Queensberry Street","suburb":"North Melbourne","address_pnt":"331 Queensberry Street  North Melbourne","suburb_id":"592","street_id":"1008","easting":"320148.00021112","northing":"5813963.44352597","latitude":"-37.80401701","longitude":"144.95704327"}
    ,{"street_no":"49","gisid":"31397","the_geom":{"type":"Point","coordinates":[144.952943613374,-37.808449904306]},"str_name":"Walsh Street","suburb":"West Melbourne","address_pnt":"49 Walsh Street  West Melbourne","suburb_id":"597","street_id":"1156","easting":"319797.82526645","northing":"5813463.64185788","latitude":"-37.8084499","longitude":"144.95294361"}
    ,{"street_no":"77W","gisid":"21748","the_geom":{"type":"Point","coordinates":[144.980440154535,-37.837643111477]},"str_name":"Toorak Road","suburb":"South Yarra","address_pnt":"77W Toorak Road  South Yarra","suburb_id":"595","street_id":"1127","easting":"322288.6460331","northing":"5810276.87490866","latitude":"-37.83764311","longitude":"144.98044015"}
    ,{"street_no":"28","gisid":"7916","the_geom":{"type":"Point","coordinates":[144.976816154122,-37.808815172514]},"str_name":"Morrison Place","suburb":"East Melbourne","address_pnt":"28 Morrison Place  East Melbourne","suburb_id":"587","street_id":"913","easting":"321900.42083109","northing":"5813468.89245626","latitude":"-37.80881517","longitude":"144.97681615"}
    ,{"street_no":"147","gisid":"36088","the_geom":{"type":"Point","coordinates":[144.940903907178,-37.797443192571]},"str_name":"Macaulay Road","suburb":"North Melbourne","address_pnt":"147 Macaulay Road  North Melbourne","suburb_id":"592","street_id":"847","easting":"318710.94080792","northing":"5814661.72263135","latitude":"-37.79744319","longitude":"144.94090391"}
    ,{"street_no":"317","gisid":"14230","the_geom":{"type":"Point","coordinates":[144.958818046755,-37.811263808591]},"str_name":"Queen Street","suburb":"Melbourne","address_pnt":"317 Queen Street  Melbourne","suburb_id":"591","street_id":"1010","easting":"320321.82839567","northing":"5813162.70965603","latitude":"-37.81126381","longitude":"144.95881805"}
    ,{"street_no":"50","gisid":"28161","the_geom":{"type":"Point","coordinates":[144.950595677764,-37.801703217413]},"str_name":"Byron Street","suburb":"North Melbourne","address_pnt":"50 Byron Street  North Melbourne","suburb_id":"592","street_id":"474","easting":"319574.69304407","northing":"5814207.76421356","latitude":"-37.80170322","longitude":"144.95059568"}
    ,{"street_no":"10","gisid":"46741","the_geom":{"type":"Point","coordinates":[144.930711256623,-37.789836434839]},"str_name":"Parsons Street","suburb":"Kensington","address_pnt":"10 Parsons Street  Kensington","suburb_id":"590","street_id":"119642","easting":"317794.76114707","northing":"5815485.99173026","latitude":"-37.78983643","longitude":"144.93071126"}
    ,{"street_no":"109","gisid":"45256","the_geom":{"type":"Point","coordinates":[144.980850234761,-37.81677499374]},"str_name":"Wellington Parade South","suburb":"East Melbourne","address_pnt":"109 Wellington Parade South  East Melbourne","suburb_id":"587","street_id":"1170","easting":"322274.66674505","northing":"5812593.30795128","latitude":"-37.81677499","longitude":"144.98085024"}
    ,{"street_no":"9","gisid":"10290","the_geom":{"type":"Point","coordinates":[144.910675045799,-37.8257083845]},"str_name":"Wirraway Drive","suburb":"Port Melbourne","address_pnt":"9 Wirraway Drive  Port Melbourne","suburb_id":"594","street_id":"3252","easting":"316119.35673563","northing":"5811466.13673959","latitude":"-37.82570838","longitude":"144.91067505"}
    ,{"street_no":"408","gisid":"35255","the_geom":{"type":"Point","coordinates":[144.958706242855,-37.780075531352]},"str_name":"Mile Lane","suburb":"Parkville","address_pnt":"408 Mile Lane  Parkville","suburb_id":"593","street_id":"897","easting":"320236.38915774","northing":"5816623.33009782","latitude":"-37.78007553","longitude":"144.95870624"}
    ,{"street_no":"22","gisid":"60439","the_geom":{"type":"Point","coordinates":[144.974505810222,-37.795203351279]},"str_name":"Kay Street","suburb":"Carlton","address_pnt":"22 Kay Street  Carlton","suburb_id":"585","street_id":"750","easting":"321664.27907899","northing":"5814974.93099543","latitude":"-37.79520335","longitude":"144.97450581"}
    ,{"street_no":"148","gisid":"16032","the_geom":{"type":"Point","coordinates":[144.966600799054,-37.80367241351]},"str_name":"Lygon Street","suburb":"Carlton","address_pnt":"148 Lygon Street  Carlton","suburb_id":"585","street_id":"840","easting":"320988.6551061","northing":"5814020.03830569","latitude":"-37.80367241","longitude":"144.9666008"}
    ,{"street_no":"56","gisid":"34007","the_geom":{"type":"Point","coordinates":[144.9654235485,-37.825019746042]},"str_name":"Moore Street","suburb":"Southbank","address_pnt":"56 Moore Street  Southbank","suburb_id":"596","street_id":"1350","easting":"320936.59893334","northing":"5811648.95165935","latitude":"-37.82501975","longitude":"144.96542355"}
    ,{"street_no":"7","gisid":"47951","the_geom":{"type":"Point","coordinates":[144.940852759187,-37.794566197825]},"str_name":"Pampas Street","suburb":"North Melbourne","address_pnt":"7 Pampas Street  North Melbourne","suburb_id":"592","street_id":"119652","easting":"318699.40254659","northing":"5814980.87256171","latitude":"-37.7945662","longitude":"144.94085276"}
    ,{"street_no":"9","gisid":"24049","the_geom":{"type":"Point","coordinates":[144.919055167419,-37.792591558932]},"str_name":"Cakebread Mews","suburb":"Kensington","address_pnt":"9 Cakebread Mews  Kensington","suburb_id":"590","street_id":"1403","easting":"316775.11201946","northing":"5815157.4749948","latitude":"-37.79259156","longitude":"144.91905517"}
    ,{"street_no":"16","gisid":"55402","the_geom":{"type":"Point","coordinates":[144.954231429525,-37.815313154971]},"str_name":"Rose Lane","suburb":"Melbourne","address_pnt":"16 Rose Lane  Melbourne","suburb_id":"591","street_id":"1037","easting":"319927.88201527","northing":"5812704.53617172","latitude":"-37.81531316","longitude":"144.95423143"}
    ,{"street_no":"176","gisid":"56524","the_geom":{"type":"Point","coordinates":[144.983586696797,-37.812673302975]},"str_name":"Gipps Street","suburb":"East Melbourne","address_pnt":"176 Gipps Street  East Melbourne","suburb_id":"587","street_id":"656","easting":"322505.72981661","northing":"5813053.65902108","latitude":"-37.8126733","longitude":"144.9835867"}
    ,{"street_no":"414","gisid":"25416","the_geom":{"type":"Point","coordinates":[144.952469576249,-37.805352579582]},"str_name":"Victoria Street","suburb":"North Melbourne","address_pnt":"414 Victoria Street  North Melbourne","suburb_id":"592","street_id":"1152","easting":"319748.55902479","northing":"5813806.4257341","latitude":"-37.80535258","longitude":"144.95246958"}
    ,{"street_no":"3","gisid":"22765","the_geom":{"type":"Point","coordinates":[144.978349124909,-37.835262164905]},"str_name":"Bromby Street","suburb":"South Yarra","address_pnt":"3 Bromby Street  South Yarra","suburb_id":"595","street_id":"466","easting":"322098.9058428","northing":"5810537.09704334","latitude":"-37.83526216","longitude":"144.97834913"}
    ,{"street_no":"3","gisid":"3623","the_geom":{"type":"Point","coordinates":[144.959530802999,-37.815101286759]},"str_name":"Little Queen Street","suburb":"Melbourne","address_pnt":"3 Little Queen Street  Melbourne","suburb_id":"591","street_id":"833","easting":"320393.87801085","northing":"5812738.25016607","latitude":"-37.81510129","longitude":"144.9595308"}
    ,{"street_no":"125","gisid":"15632","the_geom":{"type":"Point","coordinates":[144.969217513227,-37.803985123691]},"str_name":"Rathdowne Street","suburb":"Carlton","address_pnt":"125 Rathdowne Street  Carlton","suburb_id":"585","street_id":"1024","easting":"321219.79725124","northing":"5813990.34883264","latitude":"-37.80398512","longitude":"144.96921751"}
    ,{"street_no":"26","gisid":"2097","the_geom":{"type":"Point","coordinates":[144.968555336318,-37.808718214354]},"str_name":"Evans Lane","suburb":"Melbourne","address_pnt":"26 Evans Lane  Melbourne","suburb_id":"591","street_id":"613","easting":"321172.91611361","northing":"5813463.86969654","latitude":"-37.80871821","longitude":"144.96855534"}
    ,{"street_no":"274","gisid":"16889","the_geom":{"type":"Point","coordinates":[144.969488203342,-37.809326746264]},"str_name":"Exhibition Street","suburb":"Melbourne","address_pnt":"274 Exhibition Street  Melbourne","suburb_id":"591","street_id":"615","easting":"321256.51224348","northing":"5813398.12884028","latitude":"-37.80932675","longitude":"144.9694882"}
    ,{"street_no":"573","gisid":"11369","the_geom":{"type":"Point","coordinates":[144.956705994591,-37.816251056158]},"str_name":"Bourke Street","suburb":"Melbourne","address_pnt":"573 Bourke Street  Melbourne","suburb_id":"591","street_id":"455","easting":"320147.99725886","northing":"5812605.22883092","latitude":"-37.81625106","longitude":"144.95670599"}
    ,{"street_no":"109","gisid":"38927","the_geom":{"type":"Point","coordinates":[144.920411563887,-37.797515904344]},"str_name":"Fairbairn Drive","suburb":"Kensington","address_pnt":"109 Fairbairn Drive  Kensington","suburb_id":"590","street_id":"2038","easting":"316906.71442552","northing":"5814613.69596886","latitude":"-37.7975159","longitude":"144.92041156"}
    ,{"street_no":"50","gisid":"1008","the_geom":{"type":"Point","coordinates":[144.970712289219,-37.809659729085]},"str_name":"Lonsdale Street","suburb":"Melbourne","address_pnt":"50 Lonsdale Street  Melbourne","suburb_id":"591","street_id":"803","easting":"321365.08093169","northing":"5813363.52057405","latitude":"-37.80965973","longitude":"144.97071229"}
    ,{"street_no":"67","gisid":"41194","the_geom":{"type":"Point","coordinates":[144.938656495314,-37.777026933573]},"str_name":"Cade Way","suburb":"Parkville","address_pnt":"67 Cade Way  Parkville","suburb_id":"593","street_id":"119270","easting":"318463.08689324","northing":"5816922.87266466","latitude":"-37.77702693","longitude":"144.9386565"}
    ,{"street_no":"102","gisid":"25739","the_geom":{"type":"Point","coordinates":[144.947990556419,-37.800623399978]},"str_name":"Arden Street","suburb":"North Melbourne","address_pnt":"102 Arden Street  North Melbourne","suburb_id":"592","street_id":"395","easting":"319342.68751617","northing":"5814322.55330433","latitude":"-37.8006234","longitude":"144.94799056"}
    ,{"street_no":"28","gisid":"3643","the_geom":{"type":"Point","coordinates":[144.960769645774,-37.810943329223]},"str_name":"Sutherland Street","suburb":"Melbourne","address_pnt":"28 Sutherland Street  Melbourne","suburb_id":"591","street_id":"1109","easting":"320492.86277385","northing":"5813202.02433832","latitude":"-37.81094333","longitude":"144.96076965"}
    ,{"street_no":"469","gisid":"7864","the_geom":{"type":"Point","coordinates":[144.974919083942,-37.809601466152]},"str_name":"Albert Street","suburb":"East Melbourne","address_pnt":"469 Albert Street  East Melbourne","suburb_id":"587","street_id":"375","easting":"321735.29678229","northing":"5813378.02217006","latitude":"-37.80960147","longitude":"144.97491908"}
    ,{"street_no":"179","gisid":"27719","the_geom":{"type":"Point","coordinates":[144.945245058139,-37.80323767824]},"str_name":"Abbotsford Street","suburb":"North Melbourne","address_pnt":"179 Abbotsford Street  North Melbourne","suburb_id":"592","street_id":"367","easting":"319107.32939475","northing":"5814027.14444997","latitude":"-37.80323768","longitude":"144.94524506"}
    ,{"street_no":"1000","gisid":"49966","the_geom":{"type":"Point","coordinates":[144.946274677917,-37.814505498627]},"str_name":"La Trobe Street","suburb":"Docklands","address_pnt":"1000 La Trobe Street  Docklands","suburb_id":"599","street_id":"780","easting":"319225.46938938","northing":"5812778.78871274","latitude":"-37.8145055","longitude":"144.94627468"}
    ,{"street_no":"90","gisid":"47682","the_geom":{"type":"Point","coordinates":[144.936962625294,-37.791838355681]},"str_name":"Sutton Street","suburb":"North Melbourne","address_pnt":"90 Sutton Street  North Melbourne","suburb_id":"592","street_id":"119626","easting":"318350.17083077","northing":"5815276.01611413","latitude":"-37.79183836","longitude":"144.93696263"}
    ,{"street_no":"66","gisid":"30902","the_geom":{"type":"Point","coordinates":[144.948908195184,-37.806776540263]},"str_name":"Roden Street","suburb":"West Melbourne","address_pnt":"66 Roden Street  West Melbourne","suburb_id":"597","street_id":"1035","easting":"319438.47317055","northing":"5813641.53662013","latitude":"-37.80677654","longitude":"144.94890819"}
    ,{"street_no":"552","gisid":"44676","the_geom":{"type":"Point","coordinates":[144.956015028039,-37.818389195317]},"str_name":"Collins Street","suburb":"Melbourne","address_pnt":"552 Collins Street  Melbourne","suburb_id":"591","street_id":"526","easting":"320092.363539","northing":"5812366.63658613","latitude":"-37.8183892","longitude":"144.95601503"}
    ,{"street_no":"27","gisid":"46456","the_geom":{"type":"Point","coordinates":[144.932755420049,-37.792919750244]},"str_name":"Robertson Street","suburb":"Kensington","address_pnt":"27 Robertson Street  Kensington","suburb_id":"590","street_id":"119638","easting":"317982.34158742","northing":"5815147.8311686","latitude":"-37.79291975","longitude":"144.93275542"}
    ,{"street_no":"9","gisid":"6323","the_geom":{"type":"Point","coordinates":[144.965837269308,-37.817535600501]},"str_name":"Degraves Street","suburb":"Melbourne","address_pnt":"9 Degraves Street  Melbourne","suburb_id":"591","street_id":"566","easting":"320954.9266921","northing":"5812480.23220984","latitude":"-37.8175356","longitude":"144.96583727"}
    ,{"street_no":"298","gisid":"58009","the_geom":{"type":"Point","coordinates":[144.944340302718,-37.799195886094]},"str_name":"Dryburgh Street","suburb":"North Melbourne","address_pnt":"298 Dryburgh Street  North Melbourne","suburb_id":"592","street_id":"585","easting":"319017.80255809","northing":"5814473.89472554","latitude":"-37.79919589","longitude":"144.9443403"}
    ,{"street_no":"376","gisid":"53804","the_geom":{"type":"Point","coordinates":[144.959721886386,-37.784800003626]},"str_name":"Royal Parade","suburb":"Carlton North","address_pnt":"376 Royal Parade  Carlton North","suburb_id":"586","street_id":"1041","easting":"320337.28230594","northing":"5816101.02855424","latitude":"-37.7848","longitude":"144.95972189"}
    ,{"street_no":"192","gisid":"8256","the_geom":{"type":"Point","coordinates":[144.945905673827,-37.808676223201]},"str_name":"Adderley Street","suburb":"West Melbourne","address_pnt":"192 Adderley Street  West Melbourne","suburb_id":"597","street_id":"371","easting":"319178.76188225","northing":"5813424.92810463","latitude":"-37.80867622","longitude":"144.94590567"}
    ,{"street_no":"506","gisid":"29911","the_geom":{"type":"Point","coordinates":[144.945456418453,-37.792913318052]},"str_name":"Dryburgh Street","suburb":"North Melbourne","address_pnt":"506 Dryburgh Street  North Melbourne","suburb_id":"592","street_id":"585","easting":"319100.74980263","northing":"5815173.20840664","latitude":"-37.79291332","longitude":"144.94545642"}
    ,{"street_no":"97","gisid":"57961","the_geom":{"type":"Point","coordinates":[144.941817087978,-37.796054782553]},"str_name":"Shiel Street","suburb":"North Melbourne","address_pnt":"97 Shiel Street  North Melbourne","suburb_id":"592","street_id":"1069","easting":"318787.9553807","northing":"5814817.56062716","latitude":"-37.79605478","longitude":"144.94181709"}
    ,{"street_no":"14","gisid":"47902","the_geom":{"type":"Point","coordinates":[144.939725086467,-37.794440102276]},"str_name":"Caytre Crescent","suburb":"North Melbourne","address_pnt":"14 Caytre Crescent  North Melbourne","suburb_id":"592","street_id":"119653","easting":"318599.79569914","northing":"5814992.67640177","latitude":"-37.7944401","longitude":"144.93972509"}
    ,{"street_no":"31","gisid":"50484","the_geom":{"type":"Point","coordinates":[144.920682439648,-37.792963815723]},"str_name":"Neale Street","suburb":"Kensington","address_pnt":"31 Neale Street  Kensington","suburb_id":"590","street_id":"1304","easting":"316919.32636586","northing":"5815119.35638607","latitude":"-37.79296382","longitude":"144.92068244"}
    ,{"street_no":"518","gisid":"62794","the_geom":{"type":"Point","coordinates":[144.988582430933,-37.809901348492]},"str_name":"Victoria Parade","suburb":"East Melbourne","address_pnt":"518 Victoria Parade  East Melbourne","suburb_id":"587","street_id":"1151","easting":"322938.90060522","northing":"5813370.73195757","latitude":"-37.80990135","longitude":"144.98858243"}
    ,{"street_no":"86","gisid":"11308","the_geom":{"type":"Point","coordinates":[144.970652857853,-37.813111002299]},"str_name":"Little Collins Street","suburb":"Melbourne","address_pnt":"86 Little Collins Street  Melbourne","suburb_id":"591","street_id":"812","easting":"321368.16806199","northing":"5812980.43308492","latitude":"-37.813111","longitude":"144.97065286"}
    ,{"street_no":"11","gisid":"36212","the_geom":{"type":"Point","coordinates":[144.93999926924,-37.795825020397]},"str_name":"Vaughan Terrace","suburb":"North Melbourne","address_pnt":"11 Vaughan Terrace  North Melbourne","suburb_id":"592","street_id":"1149","easting":"318627.32679853","northing":"5814839.52947934","latitude":"-37.79582502","longitude":"144.93999927"}
    ,{"street_no":"7","gisid":"38291","the_geom":{"type":"Point","coordinates":[144.926876076364,-37.799540219958]},"str_name":"Childers Street","suburb":"Kensington","address_pnt":"7 Childers Street  Kensington","suburb_id":"590","street_id":"507","easting":"317480.91584677","northing":"5814401.71271228","latitude":"-37.79954022","longitude":"144.92687608"}
    ,{"street_no":"40","gisid":"18558","the_geom":{"type":"Point","coordinates":[144.950476248404,-37.820397049666]},"str_name":"Village Street","suburb":"Docklands","address_pnt":"40 Village Street  Docklands","suburb_id":"599","street_id":"117946","easting":"319609.68784936","northing":"5812133.14814427","latitude":"-37.82039705","longitude":"144.95047625"}
    ,{"street_no":"4","gisid":"63608","the_geom":{"type":"Point","coordinates":[144.989819255757,-37.813304328491]},"str_name":"Darling Street","suburb":"East Melbourne","address_pnt":"4 Darling Street  East Melbourne","suburb_id":"587","street_id":"556","easting":"323055.91250489","northing":"5812995.46184858","latitude":"-37.81330433","longitude":"144.98981926"}
    ,{"street_no":"138","gisid":"60038","the_geom":{"type":"Point","coordinates":[144.96071334598,-37.802880101481]},"str_name":"Leicester Street","suburb":"Carlton","address_pnt":"138 Leicester Street  Carlton","suburb_id":"585","street_id":"786","easting":"320468.37635851","northing":"5814096.66068946","latitude":"-37.8028801","longitude":"144.96071335"}
    ,{"street_no":"25","gisid":"53301","the_geom":{"type":"Point","coordinates":[144.989209372781,-37.81688358741]},"str_name":"Wellington Parade","suburb":"East Melbourne","address_pnt":"25 Wellington Parade  East Melbourne","suburb_id":"587","street_id":"1169","easting":"323010.77234299","northing":"5812597.13134017","latitude":"-37.81688359","longitude":"144.98920937"}
    ,{"street_no":"30","gisid":"41594","the_geom":{"type":"Point","coordinates":[144.941627202107,-37.783418343205]},"str_name":"Oak Street","suburb":"Parkville","address_pnt":"30 Oak Street  Parkville","suburb_id":"593","street_id":"938","easting":"318740.35362668","northing":"5816219.40876288","latitude":"-37.78341834","longitude":"144.9416272"}
    ,{"street_no":"357","gisid":"960","the_geom":{"type":"Point","coordinates":[144.963382073544,-37.81431858825]},"str_name":"Bourke Street","suburb":"Melbourne","address_pnt":"357 Bourke Street  Melbourne","suburb_id":"591","street_id":"455","easting":"320731.01662967","northing":"5812832.50205245","latitude":"-37.81431859","longitude":"144.96338207"}
    ,{"street_no":"961","gisid":"21240","the_geom":{"type":"Point","coordinates":[144.987853161561,-37.831208036326]},"str_name":"Punt Road","suburb":"South Yarra","address_pnt":"961 Punt Road  South Yarra","suburb_id":"595","street_id":"1004","easting":"322925.63300585","northing":"5811005.03541658","latitude":"-37.83120804","longitude":"144.98785316"}
    ,{"street_no":"29","gisid":"37785","the_geom":{"type":"Point","coordinates":[144.926257295801,-37.792771624948]},"str_name":"Epsom Road","suburb":"Kensington","address_pnt":"29 Epsom Road  Kensington","suburb_id":"590","street_id":"605","easting":"317409.76445705","northing":"5815151.59091892","latitude":"-37.79277162","longitude":"144.9262573"}
    ,{"street_no":"25","gisid":"23906","the_geom":{"type":"Point","coordinates":[144.916882734289,-37.793545124749]},"str_name":"Rourke Lane","suburb":"Kensington","address_pnt":"25 Rourke Lane  Kensington","suburb_id":"590","street_id":"117904","easting":"316586.16906193","northing":"5815047.39924816","latitude":"-37.79354512","longitude":"144.91688273"}
    ,{"gisid":"48594","the_geom":{"type":"Point","coordinates":[144.966060361408,-37.817714333911]},"add_comp":"Kiosk 13","str_name":"Campbell Arcade","suburb":"Melbourne","address_pnt":"Kiosk 13 Campbell Arcade  Melbourne","suburb_id":"591","street_id":"1601","easting":"320974.99696868","northing":"5812460.82650102","latitude":"-37.81771433","longitude":"144.96606036"}
    ,{"street_no":"3","gisid":"5385","the_geom":{"type":"Point","coordinates":[144.960776189169,-37.813705196568]},"str_name":"Goldie Place","suburb":"Melbourne","address_pnt":"3 Goldie Place  Melbourne","suburb_id":"591","street_id":"663","easting":"320500.12902668","northing":"5812895.56314411","latitude":"-37.8137052","longitude":"144.96077619"}
    ,{"street_no":"1161","gisid":"62709","the_geom":{"type":"Point","coordinates":[144.990446820455,-37.81383098555]},"str_name":"Hoddle Street","suburb":"East Melbourne","address_pnt":"1161 Hoddle Street  East Melbourne","suburb_id":"587","street_id":"714","easting":"323112.41605404","northing":"5812938.20958634","latitude":"-37.81383099","longitude":"144.99044682"}
    ,{"street_no":"79","gisid":"34041","the_geom":{"type":"Point","coordinates":[144.965587230857,-37.8252502815]},"str_name":"Moore Street","suburb":"Southbank","address_pnt":"79 Moore Street  Southbank","suburb_id":"596","street_id":"1350","easting":"320951.5633894","northing":"5811623.68386685","latitude":"-37.82525028","longitude":"144.96558723"}
    ,{"street_no":"53","gisid":"28537","the_geom":{"type":"Point","coordinates":[144.946019016861,-37.801962515528]},"str_name":"Provost Street","suburb":"North Melbourne","address_pnt":"53 Provost Street  North Melbourne","suburb_id":"592","street_id":"1002","easting":"319172.3625015","northing":"5814170.14272411","latitude":"-37.80196252","longitude":"144.94601902"}
    ,{"street_no":"56","gisid":"41046","the_geom":{"type":"Point","coordinates":[144.940415899748,-37.776343469609]},"str_name":"Strickland Road","suburb":"Parkville","address_pnt":"56 Strickland Road  Parkville","suburb_id":"593","street_id":"119261","easting":"318616.37891363","northing":"5817002.12916454","latitude":"-37.77634347","longitude":"144.9404159"}
    ,{"street_no":"688","gisid":"9556","the_geom":{"type":"Point","coordinates":[144.952068056548,-37.819528699995]},"str_name":"Collins Street","suburb":"Docklands","address_pnt":"688 Collins Street  Docklands","suburb_id":"599","street_id":"526","easting":"319747.69406154","northing":"5812232.5792872","latitude":"-37.8195287","longitude":"144.95206806"}
    ,{"street_no":"455","gisid":"25580","the_geom":{"type":"Point","coordinates":[144.944771327764,-37.804800164869]},"str_name":"Victoria Street","suburb":"West Melbourne","address_pnt":"455 Victoria Street  West Melbourne","suburb_id":"597","street_id":"1152","easting":"319069.43335984","northing":"5813852.84370644","latitude":"-37.80480016","longitude":"144.94477133"}
    ,{"street_no":"41","gisid":"62407","the_geom":{"type":"Point","coordinates":[144.971381169054,-37.798619080642]},"str_name":"MacArthur Place South","suburb":"Carlton","address_pnt":"41 MacArthur Place South  Carlton","suburb_id":"585","street_id":"844","easting":"321397.36762129","northing":"5814589.93420455","latitude":"-37.79861908","longitude":"144.97138117"}
    ,{"street_no":"33","gisid":"18605","the_geom":{"type":"Point","coordinates":[144.943863151464,-37.818930296961]},"str_name":"Victoria Harbour Promenade","suburb":"Docklands","address_pnt":"33 Victoria Harbour Promenade  Docklands","suburb_id":"599","street_id":"119527","easting":"319023.98581681","northing":"5812283.11406895","latitude":"-37.8189303","longitude":"144.94386315"}
    ,{"street_no":"146","gisid":"3106","the_geom":{"type":"Point","coordinates":[144.983632611231,-37.811479161956]},"str_name":"Grey Street","suburb":"East Melbourne","address_pnt":"146 Grey Street  East Melbourne","suburb_id":"587","street_id":"677","easting":"322506.91171534","northing":"5813186.25495906","latitude":"-37.81147916","longitude":"144.98363261"}
    ,{"street_no":"160","gisid":"41433","the_geom":{"type":"Point","coordinates":[144.942800319409,-37.778522007377]},"str_name":"Oak Street","suburb":"Parkville","address_pnt":"160 Oak Street  Parkville","suburb_id":"593","street_id":"938","easting":"318831.71236336","northing":"5816765.00973232","latitude":"-37.77852201","longitude":"144.94280032"}
    ,{"street_no":"14","gisid":"27809","the_geom":{"type":"Point","coordinates":[144.944478850955,-37.803619157749]},"str_name":"Lothian Street","suburb":"North Melbourne","address_pnt":"14 Lothian Street  North Melbourne","suburb_id":"592","street_id":"804","easting":"319040.79952209","northing":"5813983.32916059","latitude":"-37.80361916","longitude":"144.94447885"}
    ,{"street_no":"22","gisid":"27536","the_geom":{"type":"Point","coordinates":[144.948422730284,-37.804239024163]},"str_name":"Little Curzon Street","suburb":"North Melbourne","address_pnt":"22 Little Curzon Street  North Melbourne","suburb_id":"592","street_id":"814","easting":"319389.54921421","northing":"5813922.17682409","latitude":"-37.80423902","longitude":"144.94842273"}
    ,{"street_no":"264","gisid":"12338","the_geom":{"type":"Point","coordinates":[144.965436854803,-37.816868967512]},"str_name":"Flinders Lane","suburb":"Melbourne","address_pnt":"264 Flinders Lane  Melbourne","suburb_id":"591","street_id":"635","easting":"320918.06756562","northing":"5812553.43816619","latitude":"-37.81686897","longitude":"144.96543685"}
    ,{"street_no":"196B","gisid":"50213","the_geom":{"type":"Point","coordinates":[144.955681198658,-37.80901278258]},"str_name":"Franklin Street","suburb":"Melbourne","address_pnt":"196B Franklin Street  Melbourne","suburb_id":"591","street_id":"644","easting":"320040.20711225","northing":"5813406.45889085","latitude":"-37.80901278","longitude":"144.9556812"}
    ,{"street_no":"10","gisid":"57579","the_geom":{"type":"Point","coordinates":[144.972390260204,-37.797277814929]},"str_name":"Belle Vue Place","suburb":"Carlton","address_pnt":"10 Belle Vue Place  Carlton","suburb_id":"585","street_id":"117733","easting":"321482.98938602","northing":"5814740.69711303","latitude":"-37.79727781","longitude":"144.97239026"}
    ,{"street_no":"77","gisid":"34755","the_geom":{"type":"Point","coordinates":[144.968769560123,-37.827735324702]},"str_name":"Wells Street","suburb":"Southbank","address_pnt":"77 Wells Street  Southbank","suburb_id":"596","street_id":"1352","easting":"321237.6670716","northing":"5811354.02512689","latitude":"-37.82773532","longitude":"144.96876956"}
    ,{"street_no":"415","gisid":"15763","the_geom":{"type":"Point","coordinates":[144.970480512093,-37.796603717167]},"str_name":"Rathdowne Street","suburb":"Carlton","address_pnt":"415 Rathdowne Street  Carlton","suburb_id":"585","street_id":"1024","easting":"321313.20710063","northing":"5814811.84851612","latitude":"-37.79660372","longitude":"144.97048051"}
    ,{"street_no":"114","gisid":"17002","the_geom":{"type":"Point","coordinates":[144.968680343863,-37.813669544891]},"str_name":"Russell Street","suburb":"Melbourne","address_pnt":"114 Russell Street  Melbourne","suburb_id":"591","street_id":"1045","easting":"321195.86847701","northing":"5812914.67967301","latitude":"-37.81366955","longitude":"144.96868034"}
    ,{"street_no":"35","gisid":"1700","the_geom":{"type":"Point","coordinates":[144.969811964936,-37.813533105533]},"str_name":"Alfred Place","suburb":"Melbourne","address_pnt":"35 Alfred Place  Melbourne","suburb_id":"591","street_id":"377","easting":"321295.15931355","northing":"5812931.98554346","latitude":"-37.81353311","longitude":"144.96981197"}
    ,{"street_no":"86","gisid":"39751","the_geom":{"type":"Point","coordinates":[144.923786745314,-37.795482300372]},"str_name":"Newton Street","suburb":"Kensington","address_pnt":"86 Newton Street  Kensington","suburb_id":"590","street_id":"3170","easting":"317198.89462557","northing":"5814845.96649555","latitude":"-37.7954823","longitude":"144.92378675"}
    ,{"street_no":"76","gisid":"42105","the_geom":{"type":"Point","coordinates":[144.91923375236,-37.810078324091]},"str_name":"Coode Road","suburb":"West Melbourne","address_pnt":"76 Coode Road  West Melbourne","suburb_id":"597","street_id":"532","easting":"316834.04981081","northing":"5813217.3766971","latitude":"-37.81007832","longitude":"144.91923375"}
    ,{"street_no":"14","gisid":"58767","the_geom":{"type":"Point","coordinates":[144.9686905137,-37.805024154637]},"str_name":"Queensberry Street","suburb":"Carlton","address_pnt":"14 Queensberry Street  Carlton","suburb_id":"585","street_id":"1008","easting":"321175.90461319","northing":"5813874.04320031","latitude":"-37.80502415","longitude":"144.96869051"}
    ,{"street_no":"61","gisid":"33577","the_geom":{"type":"Point","coordinates":[144.957359137771,-37.825633549619]},"str_name":"Clarendon Street","suburb":"Southbank","address_pnt":"61 Clarendon Street  Southbank","suburb_id":"596","street_id":"1366","easting":"320228.26346181","northing":"5811565.34533619","latitude":"-37.82563355","longitude":"144.95735914"}
    ,{"street_no":"546","gisid":"43778","the_geom":{"type":"Point","coordinates":[144.927944880384,-37.794104899127]},"str_name":"Macaulay Road","suburb":"Kensington","address_pnt":"546 Macaulay Road  Kensington","suburb_id":"590","street_id":"847","easting":"317561.65063579","northing":"5815006.93842277","latitude":"-37.7941049","longitude":"144.92794488"}
    ,{"street_no":"431","gisid":"25528","the_geom":{"type":"Point","coordinates":[144.94593183754,-37.804918948156]},"str_name":"Victoria Street","suburb":"West Melbourne","address_pnt":"431 Victoria Street  West Melbourne","suburb_id":"597","street_id":"1152","easting":"319171.89882478","northing":"5813841.90971749","latitude":"-37.80491895","longitude":"144.94593184"}
    ,{"street_no":"235","gisid":"16172","the_geom":{"type":"Point","coordinates":[144.966893455181,-37.799912447537]},"str_name":"Lygon Street","suburb":"Carlton","address_pnt":"235 Lygon Street  Carlton","suburb_id":"585","street_id":"840","easting":"321005.34364931","northing":"5814437.82686495","latitude":"-37.79991245","longitude":"144.96689346"}
    ,{"street_no":"220","gisid":"4231","the_geom":{"type":"Point","coordinates":[144.95691040206,-37.810290476866]},"str_name":"A'Beckett Street","suburb":"Melbourne","address_pnt":"220 A'Beckett Street  Melbourne","suburb_id":"591","street_id":"368","easting":"320151.52510412","northing":"5813267.04539986","latitude":"-37.81029048","longitude":"144.9569104"}
    ,{"street_no":"240","gisid":"59906","the_geom":{"type":"Point","coordinates":[144.960865933333,-37.804162537616]},"str_name":"Queensberry Street","suburb":"Carlton","address_pnt":"240 Queensberry Street  Carlton","suburb_id":"585","street_id":"1008","easting":"320484.91675842","northing":"5813954.64709177","latitude":"-37.80416254","longitude":"144.96086593"}
    ,{"street_no":"189","gisid":"47359","the_geom":{"type":"Point","coordinates":[144.940021436715,-37.788564835269]},"str_name":"Boundary Road","suburb":"North Melbourne","address_pnt":"189 Boundary Road  North Melbourne","suburb_id":"592","street_id":"453","easting":"318611.5210883","northing":"5815645.20747678","latitude":"-37.78856484","longitude":"144.94002144"}
    ,{"street_no":"480","gisid":"7450","the_geom":{"type":"Point","coordinates":[144.974668993548,-37.809298040481]},"str_name":"Albert Street","suburb":"East Melbourne","address_pnt":"480 Albert Street  East Melbourne","suburb_id":"587","street_id":"375","easting":"321712.54948337","northing":"5813411.21478892","latitude":"-37.80929804","longitude":"144.97466899"}
    ,{"street_no":"254","gisid":"43457","the_geom":{"type":"Point","coordinates":[144.967383490621,-37.785218313765]},"str_name":"Macpherson Street","address_pnt":"254 Macpherson Street","suburb_id":"0","street_id":"863","easting":"321013.02819193","northing":"5816069.31045253","latitude":"-37.78521831","longitude":"144.96738349"}
    ,{"street_no":"2","gisid":"3835","the_geom":{"type":"Point","coordinates":[144.962667987496,-37.814024332735]},"str_name":"Somerset Place","suburb":"Melbourne","address_pnt":"2 Somerset Place  Melbourne","suburb_id":"591","street_id":"1082","easting":"320667.44191533","northing":"5812863.78366414","latitude":"-37.81402433","longitude":"144.96266799"}
    ,{"street_no":"111","gisid":"28028","the_geom":{"type":"Point","coordinates":[144.952446984791,-37.803151614023]},"str_name":"Chetwynd Street","suburb":"North Melbourne","address_pnt":"111 Chetwynd Street  North Melbourne","suburb_id":"592","street_id":"506","easting":"319741.21766303","northing":"5814050.61475527","latitude":"-37.80315161","longitude":"144.95244698"}
    ,{"street_no":"23","gisid":"33465","the_geom":{"type":"Point","coordinates":[144.965206406836,-37.823449161446]},"str_name":"Kavanagh Street","suburb":"Southbank","address_pnt":"23 Kavanagh Street  Southbank","suburb_id":"596","street_id":"1348","easting":"320913.68898115","northing":"5811822.81716383","latitude":"-37.82344916","longitude":"144.96520641"}
    ,{"street_no":"61","gisid":"11969","the_geom":{"type":"Point","coordinates":[144.972622799126,-37.81487329629]},"str_name":"Flinders Lane","suburb":"Melbourne","address_pnt":"61 Flinders Lane  Melbourne","suburb_id":"591","street_id":"635","easting":"321545.83314892","northing":"5812788.64395766","latitude":"-37.8148733","longitude":"144.9726228"}
    ,{"street_no":"126","gisid":"4144","the_geom":{"type":"Point","coordinates":[144.959680865881,-37.80949406001]},"str_name":"A'Beckett Street","suburb":"Melbourne","address_pnt":"126 A'Beckett Street  Melbourne","suburb_id":"591","street_id":"368","easting":"320393.49840362","northing":"5813360.75115334","latitude":"-37.80949406","longitude":"144.95968087"}
    ,{"street_no":"520","gisid":"25497","the_geom":{"type":"Point","coordinates":[144.948795644764,-37.804938687272]},"str_name":"Victoria Street","suburb":"North Melbourne","address_pnt":"520 Victoria Street  North Melbourne","suburb_id":"592","street_id":"1152","easting":"319424.08667748","northing":"5813845.25868596","latitude":"-37.80493869","longitude":"144.94879564"}
    ,{"street_no":"15","gisid":"58079","the_geom":{"type":"Point","coordinates":[144.944155995176,-37.801878218815]},"str_name":"Little Dryburgh Street North","suburb":"North Melbourne","address_pnt":"15 Little Dryburgh Street North  North Melbourne","suburb_id":"592","street_id":"815","easting":"319008.1229646","northing":"5814175.88927543","latitude":"-37.80187822","longitude":"144.94415599"}
    ,{"street_no":"30","gisid":"7483","the_geom":{"type":"Point","coordinates":[144.970027319475,-37.815859540144]},"str_name":"Oliver Lane","suburb":"Melbourne","address_pnt":"30 Oliver Lane  Melbourne","suburb_id":"591","street_id":"944","easting":"321319.727688","northing":"5812674.24228247","latitude":"-37.81585954","longitude":"144.97002732"}
    ,{"street_no":"70","gisid":"25693","the_geom":{"type":"Point","coordinates":[144.949302977984,-37.800768858661]},"str_name":"Arden Street","suburb":"North Melbourne","address_pnt":"70 Arden Street  North Melbourne","suburb_id":"592","street_id":"395","easting":"319458.59873343","northing":"5814308.94921907","latitude":"-37.80076886","longitude":"144.94930298"}
    ,{"street_no":"70","gisid":"31628","the_geom":{"type":"Point","coordinates":[144.95521249483,-37.806495305704]},"str_name":"Capel Street","suburb":"West Melbourne","address_pnt":"70 Capel Street  West Melbourne","suburb_id":"597","street_id":"482","easting":"319992.82892848","northing":"5813684.91059683","latitude":"-37.80649531","longitude":"144.9552125"}
    ,{"street_no":"467","gisid":"41873","the_geom":{"type":"Point","coordinates":[144.912205479601,-37.80127446026]},"str_name":"Dynon Road","suburb":"West Melbourne","address_pnt":"467 Dynon Road  West Melbourne","suburb_id":"597","street_id":"588","easting":"316193.46454978","northing":"5814180.50900806","latitude":"-37.80127446","longitude":"144.91220548"}
    ,{"street_no":"20","gisid":"39259","the_geom":{"type":"Point","coordinates":[144.9191440739,-37.796811768378]},"str_name":"Nichols Lane","suburb":"Kensington","address_pnt":"20 Nichols Lane  Kensington","suburb_id":"590","street_id":"3232","easting":"316793.3685431","northing":"5814689.34711805","latitude":"-37.79681177","longitude":"144.91914407"}
    ,{"street_no":"9","gisid":"23169","the_geom":{"type":"Point","coordinates":[144.98486237623,-37.844593087706]},"str_name":"Park Lane","suburb":"South Yarra","address_pnt":"9 Park Lane  South Yarra","suburb_id":"595","street_id":"958","easting":"322694.46683109","northing":"5809514.07142327","latitude":"-37.84459309","longitude":"144.98486238"}
    ,{"street_no":"283","gisid":"9344","the_geom":{"type":"Point","coordinates":[144.951630097046,-37.813988240756]},"str_name":"Spencer Street","suburb":"Docklands","address_pnt":"283 Spencer Street  Docklands","suburb_id":"599","street_id":"1086","easting":"319695.65976383","northing":"5812846.53859156","latitude":"-37.81398824","longitude":"144.9516301"}
    ,{"street_no":"240","gisid":"41823","the_geom":{"type":"Point","coordinates":[144.915508940506,-37.801034048634]},"str_name":"Kensington Road","suburb":"West Melbourne","address_pnt":"240 Kensington Road  West Melbourne","suburb_id":"597","street_id":"753","easting":"316483.73369326","northing":"5814213.68070467","latitude":"-37.80103405","longitude":"144.91550894"}
    ,{"street_no":"408","gisid":"44880","the_geom":{"type":"Point","coordinates":[144.961601100253,-37.814561610497]},"str_name":"Bourke Street","suburb":"Melbourne","address_pnt":"408 Bourke Street  Melbourne","suburb_id":"591","street_id":"455","easting":"320574.82214633","northing":"5812802.11512615","latitude":"-37.81456161","longitude":"144.9616011"}
    ,{"street_no":"101W","gisid":"21760","the_geom":{"type":"Point","coordinates":[144.981740260033,-37.837811645792]},"str_name":"Toorak Road","suburb":"South Yarra","address_pnt":"101W Toorak Road  South Yarra","suburb_id":"595","street_id":"1127","easting":"322403.46502606","northing":"5810260.64741155","latitude":"-37.83781165","longitude":"144.98174026"}
    ,{"street_no":"803","gisid":"51294","the_geom":{"type":"Point","coordinates":[144.945968486216,-37.821556501937]},"str_name":"Collins Street","suburb":"Docklands","address_pnt":"803 Collins Street  Docklands","suburb_id":"599","street_id":"526","easting":"319215.72085144","northing":"5811995.77085152","latitude":"-37.8215565","longitude":"144.94596849"}
    ,{"street_no":"45","gisid":"42931","the_geom":{"type":"Point","coordinates":[144.907120491241,-37.827737971449]},"str_name":"Sabre Drive","suburb":"Port Melbourne","address_pnt":"45 Sabre Drive  Port Melbourne","suburb_id":"594","street_id":"117933","easting":"315811.53450615","northing":"5811233.91314993","latitude":"-37.82773797","longitude":"144.90712049"}
    ,{"street_no":"318","gisid":"58019","the_geom":{"type":"Point","coordinates":[144.944433913513,-37.798673002789]},"str_name":"Dryburgh Street","suburb":"North Melbourne","address_pnt":"318 Dryburgh Street  North Melbourne","suburb_id":"592","street_id":"585","easting":"319024.76868277","northing":"5814532.09838394","latitude":"-37.798673","longitude":"144.94443391"}
    ,{"street_no":"125","gisid":"46905","the_geom":{"type":"Point","coordinates":[144.937436978316,-37.789044544972]},"str_name":"Racecourse Road","suburb":"Kensington","address_pnt":"125 Racecourse Road  Kensington","suburb_id":"590","street_id":"119624","easting":"318385.10034969","northing":"5815586.95662195","latitude":"-37.78904454","longitude":"144.93743698"}
    ,{"street_no":"495","gisid":"13631","the_geom":{"type":"Point","coordinates":[144.959841885708,-37.807421261934]},"str_name":"Elizabeth Street","suburb":"Melbourne","address_pnt":"495 Elizabeth Street  Melbourne","suburb_id":"591","street_id":"599","easting":"320402.6513637","northing":"5813591.07105701","latitude":"-37.80742126","longitude":"144.95984189"}
    ,{"street_no":"244","gisid":"32189","the_geom":{"type":"Point","coordinates":[144.946886480345,-37.810333368096]},"str_name":"Rosslyn Street","suburb":"West Melbourne","address_pnt":"244 Rosslyn Street  West Melbourne","suburb_id":"597","street_id":"1038","easting":"319269.15250743","northing":"5813242.93890112","latitude":"-37.81033337","longitude":"144.94688648"}
    ,{"street_no":"63","gisid":"51345","the_geom":{"type":"Point","coordinates":[144.954838440221,-37.826885694984]},"str_name":"Normanby Road","suburb":"Southbank","address_pnt":"63 Normanby Road  Southbank","suburb_id":"596","street_id":"1368","easting":"320009.43761968","northing":"5811421.54326284","latitude":"-37.8268857","longitude":"144.95483844"}
    ,{"street_no":"59","gisid":"39202","the_geom":{"type":"Point","coordinates":[144.919973735328,-37.796741212328]},"str_name":"Tankard Street","suburb":"Kensington","address_pnt":"59 Tankard Street  Kensington","suburb_id":"590","street_id":"2034","easting":"316866.24886336","northing":"5814698.80292815","latitude":"-37.79674121","longitude":"144.91997373"}
    ,{"street_no":"664","gisid":"14881","the_geom":{"type":"Point","coordinates":[144.954179003522,-37.816689329491]},"str_name":"Bourke Street","suburb":"Melbourne","address_pnt":"664 Bourke Street  Melbourne","suburb_id":"591","street_id":"455","easting":"319926.6115359","northing":"5812551.72614871","latitude":"-37.81668933","longitude":"144.954179"}
    ,{"street_no":"96","gisid":"31177","the_geom":{"type":"Point","coordinates":[144.949069289729,-37.808067734078]},"str_name":"Stanley Street","suburb":"West Melbourne","address_pnt":"96 Stanley Street  West Melbourne","suburb_id":"597","street_id":"1089","easting":"319455.80149528","northing":"5813498.56903879","latitude":"-37.80806773","longitude":"144.94906929"}
    ,{"street_no":"42","gisid":"29229","the_geom":{"type":"Point","coordinates":[144.948446107407,-37.799942145961]},"str_name":"O'shanassy Street","suburb":"North Melbourne","address_pnt":"42 O'shanassy Street  North Melbourne","suburb_id":"592","street_id":"949","easting":"319381.1383774","northing":"5814399.03023","latitude":"-37.79994215","longitude":"144.94844611"}
    ,{"street_no":"125","gisid":"14027","the_geom":{"type":"Point","coordinates":[144.955905028195,-37.817160084511]},"str_name":"King Street","suburb":"Melbourne","address_pnt":"125 King Street  Melbourne","suburb_id":"591","street_id":"761","easting":"320079.69567776","northing":"5812502.81464896","latitude":"-37.81716008","longitude":"144.95590503"}
    ,{"street_no":"27","gisid":"6433","the_geom":{"type":"Point","coordinates":[144.972546485341,-37.816107511246]},"str_name":"Flinders Street","suburb":"Melbourne","address_pnt":"27 Flinders Street  Melbourne","suburb_id":"591","street_id":"636","easting":"321542.08765339","northing":"5812651.54228841","latitude":"-37.81610751","longitude":"144.97254648"}
    ,{"street_no":"89","gisid":"29125","the_geom":{"type":"Point","coordinates":[144.944702907462,-37.805099333052]},"str_name":"Silk Place","suburb":"West Melbourne","address_pnt":"89 Silk Place  West Melbourne","suburb_id":"597","street_id":"1432","easting":"319064.13969751","northing":"5813819.51356296","latitude":"-37.80509933","longitude":"144.94470291"}
    ,{"street_no":"487","gisid":"35082","the_geom":{"type":"Point","coordinates":[144.959469076358,-37.781332148727]},"str_name":"Royal Parade","suburb":"Parkville","address_pnt":"487 Royal Parade  Parkville","suburb_id":"593","street_id":"1041","easting":"320306.61794286","northing":"5816485.35546126","latitude":"-37.78133215","longitude":"144.95946908"}
    ,{"street_no":"25","gisid":"40232","the_geom":{"type":"Point","coordinates":[144.921905529487,-37.792732110765]},"str_name":"Crichton Lane","suburb":"Kensington","address_pnt":"25 Crichton Lane  Kensington","suburb_id":"590","street_id":"1297","easting":"317026.45774754","northing":"5815147.4634581","latitude":"-37.79273211","longitude":"144.92190553"}
    ,{"street_no":"62","gisid":"7232","the_geom":{"type":"Point","coordinates":[144.980660148769,-37.818426781234]},"str_name":"Jolimont Street","suburb":"East Melbourne","address_pnt":"62 Jolimont Street  East Melbourne","suburb_id":"587","street_id":"745","easting":"322261.89619391","northing":"5812409.65421731","latitude":"-37.81842678","longitude":"144.98066015"}
    ,{"street_no":"30","gisid":"43401","the_geom":{"type":"Point","coordinates":[144.963842768613,-37.784152040912]},"str_name":"Garton Street","address_pnt":"30 Garton Street","suburb_id":"0","street_id":"648","easting":"320698.63100648","northing":"5816180.84356118","latitude":"-37.78415204","longitude":"144.96384277"}
    ,{"street_no":"266","gisid":"15978","the_geom":{"type":"Point","coordinates":[144.967071955056,-37.800917389661]},"str_name":"Lygon Street","suburb":"Carlton","address_pnt":"266 Lygon Street  Carlton","suburb_id":"585","street_id":"840","easting":"321023.48650184","northing":"5814326.65459258","latitude":"-37.80091739","longitude":"144.96707196"}
    ,{"street_no":"99","gisid":"41914","the_geom":{"type":"Point","coordinates":[144.909687311233,-37.803313282433]},"str_name":"Sims Street","suburb":"West Melbourne","address_pnt":"99 Sims Street  West Melbourne","suburb_id":"597","street_id":"1074","easting":"315976.80516593","northing":"5813949.31008057","latitude":"-37.80331328","longitude":"144.90968731"}
    ,{"street_no":"153","gisid":"6701","the_geom":{"type":"Point","coordinates":[144.978658460915,-37.81733165521]},"str_name":"Jolimont Road","suburb":"East Melbourne","address_pnt":"153 Jolimont Road  East Melbourne","suburb_id":"587","street_id":"744","easting":"322083.06371043","northing":"5812527.36457459","latitude":"-37.81733166","longitude":"144.97865846"}
    ,{"street_no":"58","gisid":"22498","the_geom":{"type":"Point","coordinates":[144.978575687251,-37.8358271017]},"str_name":"Domain Street","suburb":"South Yarra","address_pnt":"58 Domain Street  South Yarra","suburb_id":"595","street_id":"574","easting":"322120.20210648","northing":"5810474.83980825","latitude":"-37.8358271","longitude":"144.97857569"}
    ,{"street_no":"91","gisid":"23712","the_geom":{"type":"Point","coordinates":[144.919446386553,-37.79344821542]},"str_name":"Gatehouse Drive","suburb":"Kensington","address_pnt":"91 Gatehouse Drive  Kensington","suburb_id":"590","street_id":"1412","easting":"316811.67854142","northing":"5815063.18175042","latitude":"-37.79344822","longitude":"144.91944639"}
    ,{"street_no":"61","gisid":"31136","the_geom":{"type":"Point","coordinates":[144.949442954402,-37.808185462836]},"str_name":"Stanley Street","suburb":"West Melbourne","address_pnt":"61 Stanley Street  West Melbourne","suburb_id":"597","street_id":"1089","easting":"319488.9855963","northing":"5813486.22724278","latitude":"-37.80818546","longitude":"144.94944295"}
    ,{"street_no":"19","gisid":"3648","the_geom":{"type":"Point","coordinates":[144.96080772279,-37.811161163927]},"str_name":"Sutherland Street","suburb":"Melbourne","address_pnt":"19 Sutherland Street  Melbourne","suburb_id":"591","street_id":"1109","easting":"320496.74256854","northing":"5813177.92515819","latitude":"-37.81116116","longitude":"144.96080772"}
    ,{"street_no":"411","gisid":"24963","the_geom":{"type":"Point","coordinates":[144.953780421438,-37.803652520531]},"str_name":"Queensberry Street","suburb":"North Melbourne","address_pnt":"411 Queensberry Street  North Melbourne","suburb_id":"592","street_id":"1008","easting":"319859.83816672","northing":"5813997.60314326","latitude":"-37.80365252","longitude":"144.95378042"}
    ,{"street_no":"32","gisid":"58776","the_geom":{"type":"Point","coordinates":[144.9681609944,-37.804967983216]},"str_name":"Queensberry Street","suburb":"Carlton","address_pnt":"32 Queensberry Street  Carlton","suburb_id":"585","street_id":"1008","easting":"321129.14854373","northing":"5813879.26256326","latitude":"-37.80496798","longitude":"144.96816099"}
    ,{"street_no":"82","gisid":"52149","the_geom":{"type":"Point","coordinates":[144.97440707748,-37.808354646474]},"str_name":"Victoria Parade","suburb":"East Melbourne","address_pnt":"82 Victoria Parade  East Melbourne","suburb_id":"587","street_id":"1151","easting":"321687.2211927","northing":"5813515.39942611","latitude":"-37.80835465","longitude":"144.97440708"}
    ,{"street_no":"44","gisid":"35198","the_geom":{"type":"Point","coordinates":[144.957979630387,-37.78146147053]},"str_name":"Ievers Street","suburb":"Parkville","address_pnt":"44 Ievers Street  Parkville","suburb_id":"593","street_id":"733","easting":"320175.75365139","northing":"5816468.14083942","latitude":"-37.78146147","longitude":"144.95797963"}
    ,{"street_no":"213","gisid":"59589","the_geom":{"type":"Point","coordinates":[144.962126042235,-37.80144471395]},"str_name":"Bouverie Street","suburb":"Carlton","address_pnt":"213 Bouverie Street  Carlton","suburb_id":"585","street_id":"456","easting":"320589.2844545","northing":"5814258.65361239","latitude":"-37.80144471","longitude":"144.96212604"}
    ,{"street_no":"113","gisid":"41765","the_geom":{"type":"Point","coordinates":[144.941192222471,-37.784068667106]},"str_name":"Manningham Street","suburb":"Parkville","address_pnt":"113 Manningham Street  Parkville","suburb_id":"593","street_id":"870","easting":"318703.63470455","northing":"5816146.40130195","latitude":"-37.78406867","longitude":"144.94119222"}
    ,{"street_no":"14","gisid":"46800","the_geom":{"type":"Point","coordinates":[144.932742280589,-37.789458070049]},"str_name":"Nottingham Street","suburb":"Kensington","address_pnt":"14 Nottingham Street  Kensington","suburb_id":"590","street_id":"119631","easting":"317972.68793698","northing":"5815531.93542312","latitude":"-37.78945807","longitude":"144.93274228"}
    ,{"street_no":"210","gisid":"17676","the_geom":{"type":"Point","coordinates":[144.962993045502,-37.813486562862]},"str_name":"Elizabeth Street","suburb":"Melbourne","address_pnt":"210 Elizabeth Street  Melbourne","suburb_id":"591","street_id":"599","easting":"320694.75627947","northing":"5812924.08201455","latitude":"-37.81348656","longitude":"144.96299305"}
    ,{"street_no":"457","gisid":"15783","the_geom":{"type":"Point","coordinates":[144.970696888659,-37.795382315103]},"str_name":"Rathdowne Street","suburb":"Carlton","address_pnt":"457 Rathdowne Street  Carlton","suburb_id":"585","street_id":"1024","easting":"321329.31655498","northing":"5814947.79602775","latitude":"-37.79538231","longitude":"144.97069689"}
    ,{"street_no":"406","gisid":"9845","the_geom":{"type":"Point","coordinates":[144.957682697537,-37.811247551971]},"str_name":"La Trobe Street","suburb":"Melbourne","address_pnt":"406 La Trobe Street  Melbourne","suburb_id":"591","street_id":"780","easting":"320221.83754709","northing":"5813162.32908903","latitude":"-37.81124755","longitude":"144.9576827"}
    ,{"street_no":"11","gisid":"60910","the_geom":{"type":"Point","coordinates":[144.971875997606,-37.797054342842]},"str_name":"David Street","suburb":"Carlton","address_pnt":"11 David Street  Carlton","suburb_id":"585","street_id":"558","easting":"321437.16921108","northing":"5814764.51215064","latitude":"-37.79705434","longitude":"144.971876"}
    ,{"street_no":"123","gisid":"61066","the_geom":{"type":"Point","coordinates":[144.971365975257,-37.800147094082]},"str_name":"Barkly Street","suburb":"Carlton","address_pnt":"123 Barkly Street  Carlton","suburb_id":"585","street_id":"415","easting":"321399.71083637","northing":"5814420.34798051","latitude":"-37.80014709","longitude":"144.97136598"}
    ,{"street_no":"131","gisid":"9318","the_geom":{"type":"Point","coordinates":[144.947322035673,-37.810513235502]},"str_name":"Adderley Street","suburb":"West Melbourne","address_pnt":"131 Adderley Street  West Melbourne","suburb_id":"597","street_id":"371","easting":"319307.93609462","northing":"5813223.82228851","latitude":"-37.81051324","longitude":"144.94732204"}
    ,{"street_no":"54","gisid":"31359","the_geom":{"type":"Point","coordinates":[144.953508471378,-37.80877416516]},"str_name":"Dudley Street","suburb":"West Melbourne","address_pnt":"54 Dudley Street  West Melbourne","suburb_id":"597","street_id":"586","easting":"319848.34315499","northing":"5813428.74943517","latitude":"-37.80877416","longitude":"144.95350847"}
    ,{"street_no":"65","gisid":"39402","the_geom":{"type":"Point","coordinates":[144.921141787858,-37.795144480966]},"str_name":"Newman Street","suburb":"Kensington","address_pnt":"65 Newman Street  Kensington","suburb_id":"590","street_id":"2032","easting":"316965.15861489","northing":"5814878.27537607","latitude":"-37.79514448","longitude":"144.92114179"}
    ,{"street_no":"383","gisid":"14741","the_geom":{"type":"Point","coordinates":[144.960614828514,-37.811693073048]},"str_name":"Little Lonsdale Street","suburb":"Melbourne","address_pnt":"383 Little Lonsdale Street  Melbourne","suburb_id":"591","street_id":"825","easting":"320481.04952511","northing":"5813118.53062856","latitude":"-37.81169307","longitude":"144.96061483"}
    ,{"street_no":"7","gisid":"11945","the_geom":{"type":"Point","coordinates":[144.974064989232,-37.814465559364]},"str_name":"Flinders Lane","suburb":"Melbourne","address_pnt":"7 Flinders Lane  Melbourne","suburb_id":"591","street_id":"635","easting":"321671.80975345","northing":"5812836.64339327","latitude":"-37.81446556","longitude":"144.97406499"}
    ,{"street_no":"527","gisid":"44664","the_geom":{"type":"Point","coordinates":[144.957089307106,-37.818368586206]},"str_name":"Collins Street","suburb":"Melbourne","address_pnt":"527 Collins Street  Melbourne","suburb_id":"591","street_id":"526","easting":"320186.8794905","northing":"5812370.99238115","latitude":"-37.81836859","longitude":"144.95708931"}
    ,{"street_no":"201","gisid":"16349","the_geom":{"type":"Point","coordinates":[144.968125877251,-37.801529042577]},"str_name":"Drummond Street","suburb":"Carlton","address_pnt":"201 Drummond Street  Carlton","suburb_id":"585","street_id":"583","easting":"321117.7581753","northing":"5814260.80039084","latitude":"-37.80152904","longitude":"144.96812588"}
    ,{"street_no":"462","gisid":"13464","the_geom":{"type":"Point","coordinates":[144.954269465031,-37.806673779603]},"str_name":"William Street","suburb":"West Melbourne","address_pnt":"462 William Street  West Melbourne","suburb_id":"597","street_id":"1179","easting":"319910.23666051","northing":"5813663.28850146","latitude":"-37.80667378","longitude":"144.95426946"}
    ,{"street_no":"386","gisid":"47780","the_geom":{"type":"Point","coordinates":[144.933433720081,-37.794724829566]},"str_name":"Macaulay Road","suburb":"Kensington","address_pnt":"386 Macaulay Road  Kensington","suburb_id":"590","street_id":"847","easting":"318046.5007026","northing":"5814948.84919616","latitude":"-37.79472483","longitude":"144.93343372"}
    ,{"street_no":"12","gisid":"56497","the_geom":{"type":"Point","coordinates":[144.941460523574,-37.821087882305]},"str_name":"Tom Thumb Lane","suburb":"Docklands","address_pnt":"12 Tom Thumb Lane  Docklands","suburb_id":"599","street_id":"120149","easting":"318817.76655843","northing":"5812039.03563748","latitude":"-37.82108788","longitude":"144.94146052"}
    ,{"street_no":"40","gisid":"26338","the_geom":{"type":"Point","coordinates":[144.953141178548,-37.79966112344]},"str_name":"Villiers Street","suburb":"North Melbourne","address_pnt":"40 Villiers Street  North Melbourne","suburb_id":"592","street_id":"1154","easting":"319793.85373025","northing":"5814439.28009405","latitude":"-37.79966112","longitude":"144.95314118"}
    ,{"street_no":"43","gisid":"54460","the_geom":{"type":"Point","coordinates":[144.951448397982,-37.819852284577]},"str_name":"Wurundjeri Way","suburb":"Docklands","address_pnt":"43 Wurundjeri Way  Docklands","suburb_id":"599","street_id":"117786","easting":"319693.93549938","northing":"5812195.47608641","latitude":"-37.81985228","longitude":"144.9514484"}
    ,{"street_no":"230","gisid":"54572","the_geom":{"type":"Point","coordinates":[144.943979059459,-37.813105819204]},"str_name":"Harbour Esplanade","suburb":"Docklands","address_pnt":"230 Harbour Esplanade  Docklands","suburb_id":"599","street_id":"117766","easting":"319019.96250984","northing":"5812929.66058493","latitude":"-37.81310582","longitude":"144.94397906"}
    ,{"street_no":"48","gisid":"5345","the_geom":{"type":"Point","coordinates":[144.96124492654,-37.81358730027]},"str_name":"Hardware Lane","suburb":"Melbourne","address_pnt":"48 Hardware Lane  Melbourne","suburb_id":"591","street_id":"3226","easting":"320541.10784986","northing":"5812909.54632949","latitude":"-37.8135873","longitude":"144.96124493"}
    ,{"street_no":"59","gisid":"28181","the_geom":{"type":"Point","coordinates":[144.950332350034,-37.801745371151]},"str_name":"Byron Street","suburb":"North Melbourne","address_pnt":"59 Byron Street  North Melbourne","suburb_id":"592","street_id":"474","easting":"319551.61033042","northing":"5814202.57804729","latitude":"-37.80174537","longitude":"144.95033235"}
    ,{"street_no":"766","gisid":"44201","the_geom":{"type":"Point","coordinates":[144.947855705425,-37.820747092364]},"str_name":"Collins Street","suburb":"Docklands","address_pnt":"766 Collins Street  Docklands","suburb_id":"599","street_id":"526","easting":"319379.86761468","northing":"5812089.24000451","latitude":"-37.82074709","longitude":"144.94785571"}
    ,{"street_no":"55","gisid":"56640","the_geom":{"type":"Point","coordinates":[144.976181145109,-37.833410990934]},"str_name":"Domain Road","suburb":"Melbourne","address_pnt":"55 Domain Road  Melbourne","suburb_id":"591","street_id":"572","easting":"321903.65577294","northing":"5810738.38137159","latitude":"-37.83341099","longitude":"144.97618114"}
    ,{"street_no":"36","gisid":"52775","the_geom":{"type":"Point","coordinates":[144.957826903294,-37.784464239201]},"str_name":"Walker Street","suburb":"Parkville","address_pnt":"36 Walker Street  Parkville","suburb_id":"593","street_id":"1157","easting":"320169.58215688","northing":"5816134.64262958","latitude":"-37.78446424","longitude":"144.9578269"}
    ,{"street_no":"16","gisid":"7476","the_geom":{"type":"Point","coordinates":[144.970167525393,-37.816164031625]},"str_name":"Oliver Lane","suburb":"Melbourne","address_pnt":"16 Oliver Lane  Melbourne","suburb_id":"591","street_id":"944","easting":"321332.80430515","northing":"5812640.72232559","latitude":"-37.81616403","longitude":"144.97016753"}
    ,{"street_no":"445","gisid":"10407","the_geom":{"type":"Point","coordinates":[144.911626319863,-37.822326747024]},"str_name":"Lorimer Street","suburb":"Port Melbourne","address_pnt":"445 Lorimer Street  Port Melbourne","suburb_id":"594","street_id":"1370","easting":"316194.6958963","northing":"5811843.26041233","latitude":"-37.82232675","longitude":"144.91162632"}
    ,{"street_no":"7","gisid":"39782","the_geom":{"type":"Point","coordinates":[144.924222024433,-37.795504065209]},"str_name":"Fisken Place","suburb":"Kensington","address_pnt":"7 Fisken Place  Kensington","suburb_id":"590","street_id":"117792","easting":"317237.2768403","northing":"5814844.4027962","latitude":"-37.79550407","longitude":"144.92422202"}
    ,{"street_no":"11","gisid":"5710","the_geom":{"type":"Point","coordinates":[144.964063089112,-37.817129186626]},"str_name":"Staughton Alley","suburb":"Melbourne","address_pnt":"11 Staughton Alley  Melbourne","suburb_id":"591","street_id":"1093","easting":"320797.76558876","northing":"5812521.92768448","latitude":"-37.81712919","longitude":"144.96406309"}
    ,{"street_no":"192","gisid":"12909","the_geom":{"type":"Point","coordinates":[144.957894935804,-37.814585568807]},"str_name":"William Street","suburb":"Melbourne","address_pnt":"192 William Street  Melbourne","suburb_id":"591","street_id":"1179","easting":"320248.61939194","northing":"5812792.33050319","latitude":"-37.81458557","longitude":"144.95789494"}
    ,{"street_no":"203","gisid":"55176","the_geom":{"type":"Point","coordinates":[144.956274834988,-37.802882422799]},"str_name":"Peel Street","suburb":"North Melbourne","address_pnt":"203 Peel Street  North Melbourne","suburb_id":"592","street_id":"973","easting":"320077.58963857","northing":"5814087.86463274","latitude":"-37.80288242","longitude":"144.95627484"}
    ,{"street_no":"37","gisid":"26306","the_geom":{"type":"Point","coordinates":[144.952997569324,-37.799389638715]},"str_name":"Villiers Street","suburb":"North Melbourne","address_pnt":"37 Villiers Street  North Melbourne","suburb_id":"592","street_id":"1154","easting":"319780.54898445","northing":"5814469.12867299","latitude":"-37.79938964","longitude":"144.95299757"}
    ,{"street_no":"45","gisid":"23942","the_geom":{"type":"Point","coordinates":[144.918500041796,-37.793321473261]},"str_name":"Willis Street","suburb":"Kensington","address_pnt":"45 Willis Street  Kensington","suburb_id":"590","street_id":"1442","easting":"316728.03235301","northing":"5815075.39028856","latitude":"-37.79332147","longitude":"144.91850004"}
    ,{"street_no":"197","gisid":"11473","the_geom":{"type":"Point","coordinates":[144.967995356431,-37.816236450378]},"str_name":"Flinders Lane","suburb":"Melbourne","address_pnt":"197 Flinders Lane  Melbourne","suburb_id":"591","street_id":"635","easting":"321141.76334837","northing":"5812628.52877713","latitude":"-37.81623645","longitude":"144.96799536"}
    ,{"street_no":"527","gisid":"13685","the_geom":{"type":"Point","coordinates":[144.948217937104,-37.808228635512]},"str_name":"Spencer Street","suburb":"West Melbourne","address_pnt":"527 Spencer Street  West Melbourne","suburb_id":"597","street_id":"1086","easting":"319381.24067714","northing":"5813479.06864336","latitude":"-37.80822864","longitude":"144.94821794"}
    ,{"street_no":"55","gisid":"39096","the_geom":{"type":"Point","coordinates":[144.919596934441,-37.797645136586]},"str_name":"Goldsbrough Walk","suburb":"Kensington","address_pnt":"55 Goldsbrough Walk  Kensington","suburb_id":"590","street_id":"3233","easting":"316835.303294","northing":"5814597.75887446","latitude":"-37.79764514","longitude":"144.91959693"}
    ,{"street_no":"324","gisid":"282","the_geom":{"type":"Point","coordinates":[144.964043588099,-37.813846749194]},"str_name":"Bourke Street","suburb":"Melbourne","address_pnt":"324 Bourke Street  Melbourne","suburb_id":"591","street_id":"455","easting":"320788.10997992","northing":"5812886.12969636","latitude":"-37.81384675","longitude":"144.96404359"}
    ,{"street_no":"24","gisid":"12492","the_geom":{"type":"Point","coordinates":[144.954972784288,-37.8204440646]},"str_name":"Spencer Street","suburb":"Melbourne","address_pnt":"24 Spencer Street  Melbourne","suburb_id":"591","street_id":"1086","easting":"320005.61003872","northing":"5812136.6069739","latitude":"-37.82044406","longitude":"144.95497278"}
    ,{"street_no":"749","gisid":"10497","the_geom":{"type":"Point","coordinates":[144.926775556609,-37.820841588523]},"str_name":"Lorimer Street","suburb":"Docklands","address_pnt":"749 Lorimer Street  Docklands","suburb_id":"599","street_id":"1370","easting":"317524.52273086","northing":"5812037.77371727","latitude":"-37.82084159","longitude":"144.92677556"}
    ,{"street_no":"266","gisid":"11238","the_geom":{"type":"Point","coordinates":[144.965548152225,-37.814606874347]},"str_name":"Little Collins Street","suburb":"Melbourne","address_pnt":"266 Little Collins Street  Melbourne","suburb_id":"591","street_id":"812","easting":"320922.3979095","northing":"5812804.66729441","latitude":"-37.81460687","longitude":"144.96554815"}
    ,{"gisid":"48592","the_geom":{"type":"Point","coordinates":[144.965951140668,-37.817591341754]},"add_comp":"Show Cases L-Q","str_name":"Campbell Arcade","suburb":"Melbourne","address_pnt":"Show Cases L-Q Campbell Arcade  Melbourne","suburb_id":"591","street_id":"1601","easting":"320965.08526855","northing":"5812474.26512523","latitude":"-37.81759134","longitude":"144.96595114"}
    ,{"street_no":"16","gisid":"39357","the_geom":{"type":"Point","coordinates":[144.919496814511,-37.795935040437]},"str_name":"Newman Street","suburb":"Kensington","address_pnt":"16 Newman Street  Kensington","suburb_id":"590","street_id":"2032","easting":"316822.26262394","northing":"5814787.3262012","latitude":"-37.79593504","longitude":"144.91949681"}
    ,{"street_no":"51","gisid":"31314","the_geom":{"type":"Point","coordinates":[144.950905631302,-37.809936671817]},"str_name":"Dudley Street","suburb":"West Melbourne","address_pnt":"51 Dudley Street  West Melbourne","suburb_id":"597","street_id":"586","easting":"319622.02140208","northing":"5813294.72746311","latitude":"-37.80993667","longitude":"144.95090563"}
    ,{"street_no":"21","gisid":"1944","the_geom":{"type":"Point","coordinates":[144.969073960663,-37.810888513199]},"str_name":"Cohen Place","suburb":"Melbourne","address_pnt":"21 Cohen Place  Melbourne","suburb_id":"591","street_id":"523","easting":"321223.81057118","northing":"5813224.03313427","latitude":"-37.81088851","longitude":"144.96907396"}
    ,{"street_no":"9","gisid":"1935","the_geom":{"type":"Point","coordinates":[144.968654020387,-37.810004098862]},"str_name":"Jones Lane","suburb":"Melbourne","address_pnt":"9 Jones Lane  Melbourne","suburb_id":"591","street_id":"748","easting":"321184.70673423","northing":"5813321.36915909","latitude":"-37.8100041","longitude":"144.96865402"}
    ,{"street_no":"12","gisid":"61227","the_geom":{"type":"Point","coordinates":[144.966772899168,-37.797915177018]},"str_name":"Tyne Street","suburb":"Carlton","address_pnt":"12 Tyne Street  Carlton","suburb_id":"585","street_id":"1137","easting":"320989.90644016","northing":"5814659.22468005","latitude":"-37.79791518","longitude":"144.9667729"}
    ,{"street_no":"140","gisid":"35614","the_geom":{"type":"Point","coordinates":[144.957111706375,-37.785012317199]},"str_name":"The Avenue","suburb":"Parkville","address_pnt":"140 The Avenue  Parkville","suburb_id":"593","street_id":"405","easting":"320107.92555719","northing":"5816072.44839561","latitude":"-37.78501232","longitude":"144.95711171"}
    ,{"street_no":"362","gisid":"391","the_geom":{"type":"Point","coordinates":[144.95876599827,-37.812137544968]},"str_name":"Little Lonsdale Street","suburb":"Melbourne","address_pnt":"362 Little Lonsdale Street  Melbourne","suburb_id":"591","street_id":"825","easting":"320319.36483496","northing":"5813065.65439585","latitude":"-37.81213755","longitude":"144.958766"}
    ,{"street_no":"88","gisid":"63364","the_geom":{"type":"Point","coordinates":[144.987352013544,-37.815381147154]},"str_name":"George Street","suburb":"East Melbourne","address_pnt":"88 George Street  East Melbourne","suburb_id":"587","street_id":"652","easting":"322843.67895275","northing":"5812760.32941715","latitude":"-37.81538115","longitude":"144.98735201"}
    ,{"street_no":"69","gisid":"17550","the_geom":{"type":"Point","coordinates":[144.964089821508,-37.81667929626]},"str_name":"Elizabeth Street","suburb":"Melbourne","address_pnt":"69 Elizabeth Street  Melbourne","suburb_id":"591","street_id":"599","easting":"320799.03070853","northing":"5812571.90161533","latitude":"-37.8166793","longitude":"144.96408982"}
    ,{"street_no":"170","gisid":"35530","the_geom":{"type":"Point","coordinates":[144.958010749701,-37.78568776105]},"str_name":"Mile Lane","suburb":"Parkville","address_pnt":"170 Mile Lane  Parkville","suburb_id":"593","street_id":"897","easting":"320188.73911969","northing":"5815999.22734629","latitude":"-37.78568776","longitude":"144.95801075"}
    ,{"street_no":"1","gisid":"49118","the_geom":{"type":"Point","coordinates":[144.928373017371,-37.793111969832]},"str_name":"New Street","suburb":"Kensington","address_pnt":"1 New Street  Kensington","suburb_id":"590","street_id":"119687","easting":"317596.90853286","northing":"5815117.95598616","latitude":"-37.79311197","longitude":"144.92837302"}
    ,{"street_no":"55","gisid":"54423","the_geom":{"type":"Point","coordinates":[144.944047903655,-37.820772538446]},"str_name":"Merchant Street","suburb":"Docklands","address_pnt":"55 Merchant Street  Docklands","suburb_id":"599","street_id":"117952","easting":"319044.74894749","northing":"5812079.04494868","latitude":"-37.82077254","longitude":"144.9440479"}
    ,{"street_no":"11","gisid":"47279","the_geom":{"type":"Point","coordinates":[144.924684592837,-37.790499381268]},"str_name":"Rigby Lane","suburb":"Kensington","address_pnt":"11 Rigby Lane  Kensington","suburb_id":"590","street_id":"119666","easting":"317265.67592648","northing":"5815400.6594819","latitude":"-37.79049938","longitude":"144.92468459"}
    ,{"street_no":"66","gisid":"46531","the_geom":{"type":"Point","coordinates":[144.931987940754,-37.793397301347]},"str_name":"Barnett Street","suburb":"Kensington","address_pnt":"66 Barnett Street  Kensington","suburb_id":"590","street_id":"119632","easting":"317915.93147629","northing":"5815093.34389099","latitude":"-37.7933973","longitude":"144.93198794"}
    ,{"street_no":"36","gisid":"19649","the_geom":{"type":"Point","coordinates":[144.956756152034,-37.793511493496]},"str_name":"Degraves Street","suburb":"Parkville","address_pnt":"36 Degraves Street  Parkville","suburb_id":"593","street_id":"567","easting":"320097.23061125","northing":"5815128.64580399","latitude":"-37.79351149","longitude":"144.95675615"}
    ,{"street_no":"368","gisid":"53800","the_geom":{"type":"Point","coordinates":[144.959697067553,-37.785001286446]},